{"businesses": [{"id": "ITIdDpOgbhwJ7wTtvmUnxQ", "alias": "lindeys-lake-house-flats-east-bank-cleveland", "name": "Lindey's Lake House -- Flats East Bank", "image_url": "https://s3-media2.fl.yelpcdn.com/bphoto/VIzhx9UiaCPsvSZwMhqpzg/o.jpg", "is_closed": false, "url": "https://www.yelp.com/biz/lindeys-lake-house-flats-east-bank-cleveland?adjust_creative=VZ7v1vIln-RpGHH5_leTWQ&utm_campaign=yelp_api_v3&utm_medium=api_v3_business_search&utm_source=VZ7v1vIln-RpGHH5_leTWQ", "review_count": 89, "categories": [{"alias": "newamerican", "title": "American (New)"}], "rating": 3.5, "coordinates": {"latitude": 41.499184, "longitude": -81.705059}, "transactions": ["pickup", "delivery"], "location": {"address1": "1146 Old River Rd", "address2": "", "address3": null, "city": "Cleveland", "zip_code": "44113", "country": "US", "state": "OH", "display_address": ["1146 Old River Rd", "Cleveland, OH 44113"]}, "phone": "+12167270158", "display_phone": "(216) 727-0158", "distance": 3952.9016480486493}, {"id": "9LAXz_VfATZ0kLdaavkN4g", "alias": "bakersfield-cleveland-15", "name": "Bakersfield", "image_url": "https://s3-media3.fl.yelpcdn.com/bphoto/BgKHTnX8cBKxdiDXCh_CQQ/o.jpg", "is_closed": false, "url": "https://www.yelp.com/biz/bakersfield-cleveland-15?adjust_creative=VZ7v1vIln-RpGHH5_leTWQ&utm_campaign=yelp_api_v3&utm_medium=api_v3_business_search&utm_source=VZ7v1vIln-RpGHH5_leTWQ", "review_count": 409, "categories": [{"alias": "bars", "title": "Bars"}, {"alias": "tacos", "title": "Tacos"}], "rating": 4.5, "coordinates": {"latitude": 41.4832899914507, "longitude": -81.7029820382595}, "transactions": ["delivery"], "price": "$$", "location": {"address1": "2058 W 25th St", "address2": "", "address3": null, "city": "Cleveland", "zip_code": "44113", "country": "US", "state": "OH", "display_address": ["2058 W 25th St", "Cleveland, OH 44113"]}, "phone": "+12164430460", "display_phone": "(216) 443-0460", "distance": 2776.926828955662}, {"id": "kXIJwryYY2xDHNnI7jz-WQ", "alias": "pho-thang-cafe-cleveland-3", "name": "Pho Thang Cafe", "image_url": "https://s3-media3.fl.yelpcdn.com/bphoto/0gimCGByJ0aAfVVG_hh4og/o.jpg", "is_closed": false, "url": "https://www.yelp.com/biz/pho-thang-cafe-cleveland-3?adjust_creative=VZ7v1vIln-RpGHH5_leTWQ&utm_campaign=yelp_api_v3&utm_medium=api_v3_business_search&utm_source=VZ7v1vIln-RpGHH5_leTWQ", "review_count": 296, "categories": [{"alias": "vietnamese", "title": "Vietnamese"}], "rating": 4.0, "coordinates": {"latitude": 41.5024433, "longitude": -81.6893526}, "transactions": ["delivery"], "price": "$$", "location": {"address1": "815 Superior Ave E", "address2": "", "address3": "", "city": "Cleveland", "zip_code": "44114", "country": "US", "state": "OH", "display_address": ["815 Superior Ave E", "Cleveland, OH 44114"]}, "phone": "+12162917115", "display_phone": "(216) 291-7115", "distance": 3524.018119959777}, {"id": "4YFV-Z4Yy_MCGS54kBgWPg", "alias": "rising-grill-korean-bbq-cleveland", "name": "Rising Grill Korean BBQ", "image_url": "https://s3-media4.fl.yelpcdn.com/bphoto/05sD91qxMLtU3VVzijrtRw/o.jpg", "is_closed": false, "url": "https://www.yelp.com/biz/rising-grill-korean-bbq-cleveland?adjust_creative=VZ7v1vIln-RpGHH5_leTWQ&utm_campaign=yelp_api_v3&utm_medium=api_v3_business_search&utm_source=VZ7v1vIln-RpGHH5_leTWQ", "review_count": 100, "categories": [{"alias": "korean", "title": "Korean"}, {"alias": "bbq", "title": "Barbeque"}], "rating": 4.0, "coordinates": {"latitude": 41.50983, "longitude": -81.66251}, "transactions": ["delivery"], "price": "$$", "location": {"address1": "3709 Payne Ave", "address2": "", "address3": null, "city": "Cleveland", "zip_code": "44114", "country": "US", "state": "OH", "display_address": ["3709 Payne Ave", "Cleveland, OH 44114"]}, "phone": "+12164653561", "display_phone": "(216) 465-3561", "distance": 4137.331563404393}, {"id": "LJwS9epPXXvzel7bZ616Gg", "alias": "marble-room-steaks-and-raw-bar-cleveland", "name": "Marble Room Steaks and Raw Bar", "image_url": "https://s3-media4.fl.yelpcdn.com/bphoto/gtj7k0WIoDfRUXMBeuGljA/o.jpg", "is_closed": false, "url": "https://www.yelp.com/biz/marble-room-steaks-and-raw-bar-cleveland?adjust_creative=VZ7v1vIln-RpGHH5_leTWQ&utm_campaign=yelp_api_v3&utm_medium=api_v3_business_search&utm_source=VZ7v1vIln-RpGHH5_leTWQ", "review_count": 290, "categories": [{"alias": "steak", "title": "Steakhouses"}, {"alias": "seafood", "title": "Seafood"}, {"alias": "sushi", "title": "Sushi Bars"}], "rating": 4.0, "coordinates": {"latitude": 41.5003939674634, "longitude": -81.6888146409915}, "transactions": ["delivery"], "price": "$$$", "location": {"address1": "623 Euclid Ave", "address2": null, "address3": "", "city": "Cleveland", "zip_code": "44114", "country": "US", "state": "OH", "display_address": ["623 Euclid Ave", "Cleveland, OH 44114"]}, "phone": "+12165237000", "display_phone": "(216) 523-7000", "distance": 3297.724581520952}, {"id": "bK5nWi1oNs63utSlzmRUNg", "alias": "xinji-noodle-bar-cleveland-2", "name": "Xinji Noodle Bar", "image_url": "https://s3-media2.fl.yelpcdn.com/bphoto/WIw2QyIAW6R3WvPeygNgDw/o.jpg", "is_closed": false, "url": "https://www.yelp.com/biz/xinji-noodle-bar-cleveland-2?adjust_creative=VZ7v1vIln-RpGHH5_leTWQ&utm_campaign=yelp_api_v3&utm_medium=api_v3_business_search&utm_source=VZ7v1vIln-RpGHH5_leTWQ", "review_count": 172, "categories": [{"alias": "noodles", "title": "Noodles"}, {"alias": "ramen", "title": "Ramen"}, {"alias": "bars", "title": "Bars"}], "rating": 4.0, "coordinates": {"latitude": 41.47957, "longitude": -81.71521}, "transactions": ["delivery"], "price": "$$", "location": {"address1": "4211 Lorain Ave", "address2": "", "address3": null, "city": "Cleveland", "zip_code": "44113", "country": "US", "state": "OH", "display_address": ["4211 Lorain Ave", "Cleveland, OH 44113"]}, "phone": "+12164652392", "display_phone": "(216) 465-2392", "distance": 3621.465608541231}, {"id": "bFTrpstGo0INBIVMDumMKA", "alias": "otani-noodle-downtown-cleveland", "name": "Otani Noodle - Downtown", "image_url": "https://s3-media2.fl.yelpcdn.com/bphoto/23rt8OzmeJlpPGrYAPv5Pw/o.jpg", "is_closed": false, "url": "https://www.yelp.com/biz/otani-noodle-downtown-cleveland?adjust_creative=VZ7v1vIln-RpGHH5_leTWQ&utm_campaign=yelp_api_v3&utm_medium=api_v3_business_search&utm_source=VZ7v1vIln-RpGHH5_leTWQ", "review_count": 157, "categories": [{"alias": "ramen", "title": "Ramen"}, {"alias": "noodles", "title": "Noodles"}], "rating": 4.0, "coordinates": {"latitude": 41.4994509, "longitude": -81.6915759}, "transactions": ["pickup", "delivery"], "price": "$$", "location": {"address1": "234 Euclid Ave", "address2": "", "address3": null, "city": "Cleveland", "zip_code": "44114", "country": "US", "state": "OH", "display_address": ["234 Euclid Ave", "Cleveland, OH 44114"]}, "phone": "+12167621815", "display_phone": "(216) 762-1815", "distance": 3294.4370431769557}, {"id": "HIvLwkEYuGRtI17H2x7RuQ", "alias": "bold-food-and-drink-cleveland", "name": "Bold Food & Drink", "image_url": "https://s3-media2.fl.yelpcdn.com/bphoto/4VZoHAc4KEi6msHW0e0qWw/o.jpg", "is_closed": false, "url": "https://www.yelp.com/biz/bold-food-and-drink-cleveland?adjust_creative=VZ7v1vIln-RpGHH5_leTWQ&utm_campaign=yelp_api_v3&utm_medium=api_v3_business_search&utm_source=VZ7v1vIln-RpGHH5_leTWQ", "review_count": 179, "categories": [{"alias": "newamerican", "title": "American (New)"}, {"alias": "bars", "title": "Bars"}], "rating": 4.0, "coordinates": {"latitude": 41.5008062124252, "longitude": -81.7044062912464}, "transactions": ["delivery"], "price": "$$", "location": {"address1": "1121 W 10th St", "address2": "", "address3": "", "city": "Cleveland", "zip_code": "44113", "country": "US", "state": "OH", "display_address": ["1121 W 10th St", "Cleveland, OH 44113"]}, "phone": "+12166968400", "display_phone": "(216) 696-8400", "distance": 3983.6355788470187}, {"id": "XBRCMc3rcvcRXrB3p-o9yA", "alias": "balaton-restaurant-cleveland", "name": "Balaton Restaurant", "image_url": "https://s3-media3.fl.yelpcdn.com/bphoto/k4J7pB7Hm6zcfDWdVZtqBw/o.jpg", "is_closed": false, "url": "https://www.yelp.com/biz/balaton-restaurant-cleveland?adjust_creative=VZ7v1vIln-RpGHH5_leTWQ&utm_campaign=yelp_api_v3&utm_medium=api_v3_business_search&utm_source=VZ7v1vIln-RpGHH5_leTWQ", "review_count": 138, "categories": [{"alias": "hungarian", "title": "Hungarian"}], "rating": 4.0, "coordinates": {"latitude": 41.484705, "longitude": -81.5907229}, "transactions": ["delivery"], "price": "$$", "location": {"address1": "13133 Shaker Square", "address2": null, "address3": "", "city": "Cleveland", "zip_code": "44120", "country": "US", "state": "OH", "display_address": ["13133 Shaker Square", "Cleveland, OH 44120"]}, "phone": "+12169219691", "display_phone": "(216) 921-9691", "distance": 6916.026474379791}, {"id": "SGZAsdQAp0SjtMDjXWBPYw", "alias": "banana-blossom-thai-cuisine-cleveland", "name": "Banana Blossom Thai Cuisine", "image_url": "https://s3-media2.fl.yelpcdn.com/bphoto/z9BCFXdv-ml4moPz6GKbGw/o.jpg", "is_closed": false, "url": "https://www.yelp.com/biz/banana-blossom-thai-cuisine-cleveland?adjust_creative=VZ7v1vIln-RpGHH5_leTWQ&utm_campaign=yelp_api_v3&utm_medium=api_v3_business_search&utm_source=VZ7v1vIln-RpGHH5_leTWQ", "review_count": 195, "categories": [{"alias": "thai", "title": "Thai"}], "rating": 4.0, "coordinates": {"latitude": 41.48889, "longitude": -81.70902}, "transactions": ["delivery"], "price": "$$", "location": {"address1": "2800 Clinton Ave", "address2": "", "address3": "", "city": "Cleveland", "zip_code": "44113", "country": "US", "state": "OH", "display_address": ["2800 Clinton Ave", "Cleveland, OH 44113"]}, "phone": "+12166965529", "display_phone": "(216) 696-5529", "distance": 3508.007261874832}, {"id": "t2O4Qx74U_IfBzDHJzvUCA", "alias": "urban-farmer-cleveland-2", "name": "Urban Farmer", "image_url": "https://s3-media2.fl.yelpcdn.com/bphoto/l0n5hWVtd9kcjE2FDJ0bmA/o.jpg", "is_closed": false, "url": "https://www.yelp.com/biz/urban-farmer-cleveland-2?adjust_creative=VZ7v1vIln-RpGHH5_leTWQ&utm_campaign=yelp_api_v3&utm_medium=api_v3_business_search&utm_source=VZ7v1vIln-RpGHH5_leTWQ", "review_count": 587, "categories": [{"alias": "tradamerican", "title": "American (Traditional)"}, {"alias": "steak", "title": "Steakhouses"}, {"alias": "breakfast_brunch", "title": "Breakfast & Brunch"}], "rating": 3.5, "coordinates": {"latitude": 41.5034943, "longitude": -81.691981}, "transactions": ["pickup", "delivery"], "price": "$$", "location": {"address1": "1325 E 6th St", "address2": null, "address3": "", "city": "Cleveland", "zip_code": "44114", "country": "US", "state": "OH", "display_address": ["1325 E 6th St", "Cleveland, OH 44114"]}, "phone": "+12167717707", "display_phone": "(216) 771-7707", "distance": 3725.8714029619105}, {"id": "Z0c9-Eoxz7SQ__68bl3TQw", "alias": "nora-cleveland", "name": "Nora", "image_url": "https://s3-media1.fl.yelpcdn.com/bphoto/26AHRfojhAEEXqPNkr4sPw/o.jpg", "is_closed": false, "url": "https://www.yelp.com/biz/nora-cleveland?adjust_creative=VZ7v1vIln-RpGHH5_leTWQ&utm_campaign=yelp_api_v3&utm_medium=api_v3_business_search&utm_source=VZ7v1vIln-RpGHH5_leTWQ", "review_count": 98, "categories": [{"alias": "italian", "title": "Italian"}, {"alias": "salad", "title": "Salad"}, {"alias": "desserts", "title": "Desserts"}], "rating": 4.0, "coordinates": {"latitude": 41.50409, "longitude": -81.60019}, "transactions": ["delivery"], "price": "$$", "location": {"address1": "2181 Murray Hill Rd", "address2": "", "address3": "", "city": "Cleveland", "zip_code": "44106", "country": "US", "state": "OH", "display_address": ["2181 Murray Hill Rd", "Cleveland, OH 44106"]}, "phone": "+12162315977", "display_phone": "(216) 231-5977", "distance": 6907.777158389061}, {"id": "MPioAPoOmQPts89sBSiFog", "alias": "il-rione-cleveland", "name": "Il Rione", "image_url": "https://s3-media2.fl.yelpcdn.com/bphoto/h55sA1iraOxejWalIdEBpQ/o.jpg", "is_closed": false, "url": "https://www.yelp.com/biz/il-rione-cleveland?adjust_creative=VZ7v1vIln-RpGHH5_leTWQ&utm_campaign=yelp_api_v3&utm_medium=api_v3_business_search&utm_source=VZ7v1vIln-RpGHH5_leTWQ", "review_count": 159, "categories": [{"alias": "pizza", "title": "Pizza"}, {"alias": "bars", "title": "Bars"}, {"alias": "italian", "title": "Italian"}], "rating": 4.5, "coordinates": {"latitude": 41.4867, "longitude": -81.72994}, "transactions": ["delivery"], "price": "$$", "location": {"address1": "1303 W 65th St", "address2": "", "address3": null, "city": "Cleveland", "zip_code": "44102", "country": "US", "state": "OH", "display_address": ["1303 W 65th St", "Cleveland, OH 44102"]}, "phone": "+12162821451", "display_phone": "(216) 282-1451", "distance": 5018.724461398444}, {"id": "IJlEACzNH-i_6Ovppj1KSQ", "alias": "the-plum-cleveland", "name": "The Plum", "image_url": "https://s3-media3.fl.yelpcdn.com/bphoto/yFNi2avTuYZC5I27-3mAPQ/o.jpg", "is_closed": false, "url": "https://www.yelp.com/biz/the-plum-cleveland?adjust_creative=VZ7v1vIln-RpGHH5_leTWQ&utm_campaign=yelp_api_v3&utm_medium=api_v3_business_search&utm_source=VZ7v1vIln-RpGHH5_leTWQ", "review_count": 126, "categories": [{"alias": "bars", "title": "Bars"}, {"alias": "cafes", "title": "Cafes"}, {"alias": "tradamerican", "title": "American (Traditional)"}], "rating": 4.0, "coordinates": {"latitude": 41.4799099274481, "longitude": -81.7142251234609}, "transactions": ["delivery"], "price": "$$", "location": {"address1": "4133 Lorain Ave", "address2": "", "address3": "", "city": "Cleveland", "zip_code": "44113", "country": "US", "state": "OH", "display_address": ["4133 Lorain Ave", "Cleveland, OH 44113"]}, "phone": "+12169388711", "display_phone": "(216) 938-8711", "distance": 3561.4215901422444}, {"id": "jA3xcba82t8x06H8NzG4VQ", "alias": "the-black-pig-cleveland-2", "name": "The Black Pig", "image_url": "https://s3-media4.fl.yelpcdn.com/bphoto/Ylx484WtXqx4oSpGKwCRwQ/o.jpg", "is_closed": false, "url": "https://www.yelp.com/biz/the-black-pig-cleveland-2?adjust_creative=VZ7v1vIln-RpGHH5_leTWQ&utm_campaign=yelp_api_v3&utm_medium=api_v3_business_search&utm_source=VZ7v1vIln-RpGHH5_leTWQ", "review_count": 185, "categories": [{"alias": "newamerican", "title": "American (New)"}, {"alias": "breakfast_brunch", "title": "Breakfast & Brunch"}, {"alias": "cocktailbars", "title": "Cocktail Bars"}], "rating": 4.0, "coordinates": {"latitude": 41.4847984313965, "longitude": -81.706657409668}, "transactions": [], "price": "$$", "location": {"address1": "2801 Bridge Ave", "address2": "", "address3": "", "city": "Cleveland", "zip_code": "44113", "country": "US", "state": "OH", "display_address": ["2801 Bridge Ave", "Cleveland, OH 44113"]}, "phone": "+12168627551", "display_phone": "(216) 862-7551", "distance": 3125.099895407353}, {"id": "9mI2BHTu0at_JA3RA_AEeg", "alias": "the-treehouse-cleveland", "name": "The Treehouse", "image_url": "https://s3-media3.fl.yelpcdn.com/bphoto/VUdwJZRbgdQg3AYW6NX7-Q/o.jpg", "is_closed": false, "url": "https://www.yelp.com/biz/the-treehouse-cleveland?adjust_creative=VZ7v1vIln-RpGHH5_leTWQ&utm_campaign=yelp_api_v3&utm_medium=api_v3_business_search&utm_source=VZ7v1vIln-RpGHH5_leTWQ", "review_count": 132, "categories": [{"alias": "pubs", "title": "Pubs"}, {"alias": "tradamerican", "title": "American (Traditional)"}], "rating": 3.5, "coordinates": {"latitude": 41.4807891845703, "longitude": -81.6856002807617}, "transactions": [], "price": "$$", "location": {"address1": "820 College Ave", "address2": null, "address3": "", "city": "Cleveland", "zip_code": "44113", "country": "US", "state": "OH", "display_address": ["820 College Ave", "Cleveland, OH 44113"]}, "phone": "+12166962505", "display_phone": "(216) 696-2505", "distance": 1365.0368777749345}, {"id": "fja2EnaSxKu1D7uctMhw-w", "alias": "red-the-steakhouse-cleveland-3", "name": "Red The Steakhouse", "image_url": "https://s3-media3.fl.yelpcdn.com/bphoto/T08NvUxj7pbeigCKADikyQ/o.jpg", "is_closed": false, "url": "https://www.yelp.com/biz/red-the-steakhouse-cleveland-3?adjust_creative=VZ7v1vIln-RpGHH5_leTWQ&utm_campaign=yelp_api_v3&utm_medium=api_v3_business_search&utm_source=VZ7v1vIln-RpGHH5_leTWQ", "review_count": 249, "categories": [{"alias": "steak", "title": "Steakhouses"}, {"alias": "bars", "title": "Bars"}], "rating": 4.0, "coordinates": {"latitude": 41.498484, "longitude": -81.6894706}, "transactions": ["delivery"], "price": "$$$", "location": {"address1": "417 Prospect Ave E", "address2": "", "address3": "", "city": "Cleveland", "zip_code": "44115", "country": "US", "state": "OH", "display_address": ["417 Prospect Ave E", "Cleveland, OH 44115"]}, "phone": "+12166640941", "display_phone": "(216) 664-0941", "distance": 3144.3393611028564}, {"id": "Ur4eYOFq4qVLHkZJNmcqfQ", "alias": "prosperity-social-club-cleveland", "name": "Prosperity Social Club", "image_url": "https://s3-media4.fl.yelpcdn.com/bphoto/p7B1y9Tw6o28r-7eijpiWw/o.jpg", "is_closed": false, "url": "https://www.yelp.com/biz/prosperity-social-club-cleveland?adjust_creative=VZ7v1vIln-RpGHH5_leTWQ&utm_campaign=yelp_api_v3&utm_medium=api_v3_business_search&utm_source=VZ7v1vIln-RpGHH5_leTWQ", "review_count": 233, "categories": [{"alias": "pubs", "title": "Pubs"}, {"alias": "breakfast_brunch", "title": "Breakfast & Brunch"}], "rating": 4.0, "coordinates": {"latitude": 41.4770698547363, "longitude": -81.6897888183594}, "transactions": ["delivery"], "price": "$$", "location": {"address1": "1109 Starkweather Ave", "address2": "", "address3": "", "city": "Cleveland", "zip_code": "44113", "country": "US", "state": "OH", "display_address": ["1109 Starkweather Ave", "Cleveland, OH 44113"]}, "phone": "+12169371938", "display_phone": "(216) 937-1938", "distance": 1507.415673311453}, {"id": "lZTiB75nCqHc8Q4vGZdmoA", "alias": "lava-lounge-cleveland", "name": "Lava Lounge", "image_url": "https://s3-media4.fl.yelpcdn.com/bphoto/cwFSqZRIYYdVfXdZCbJaiQ/o.jpg", "is_closed": false, "url": "https://www.yelp.com/biz/lava-lounge-cleveland?adjust_creative=VZ7v1vIln-RpGHH5_leTWQ&utm_campaign=yelp_api_v3&utm_medium=api_v3_business_search&utm_source=VZ7v1vIln-RpGHH5_leTWQ", "review_count": 85, "categories": [{"alias": "lounges", "title": "Lounges"}, {"alias": "tapasmallplates", "title": "Tapas/Small Plates"}, {"alias": "chicken_wings", "title": "Chicken Wings"}], "rating": 4.0, "coordinates": {"latitude": 41.47588, "longitude": -81.6908}, "transactions": ["delivery"], "price": "$$", "location": {"address1": "1307 Auburn Ave", "address2": "", "address3": "", "city": "Cleveland", "zip_code": "44113", "country": "US", "state": "OH", "display_address": ["1307 Auburn Ave", "Cleveland, OH 44113"]}, "phone": "+12165899112", "display_phone": "(216) 589-9112", "distance": 1559.9429392322363}, {"id": "Qqh2cFO1bk5TQ8mWIEjbCw", "alias": "herb-n-twine-cleveland", "name": "Herb 'n Twine", "image_url": "https://s3-media2.fl.yelpcdn.com/bphoto/wNEPsVu7d7EDwY2s7yxcLw/o.jpg", "is_closed": false, "url": "https://www.yelp.com/biz/herb-n-twine-cleveland?adjust_creative=VZ7v1vIln-RpGHH5_leTWQ&utm_campaign=yelp_api_v3&utm_medium=api_v3_business_search&utm_source=VZ7v1vIln-RpGHH5_leTWQ", "review_count": 178, "categories": [{"alias": "sandwiches", "title": "Sandwiches"}], "rating": 4.5, "coordinates": {"latitude": 41.4792764410029, "longitude": -81.7158751516917}, "transactions": ["delivery"], "price": "$$", "location": {"address1": "4309 Lorain Ave", "address2": "", "address3": "", "city": "Cleveland", "zip_code": "44113", "country": "US", "state": "OH", "display_address": ["4309 Lorain Ave", "Cleveland, OH 44113"]}, "phone": "+12164659600", "display_phone": "(216) 465-9600", "distance": 3683.046934793846}, {"id": "NVC1MFGTobWxYcuo_z7BGQ", "alias": "etna-restaurant-and-wine-bar-cleveland", "name": "Etna Restaurant & Wine Bar", "image_url": "https://s3-media2.fl.yelpcdn.com/bphoto/bx9cqnB17GrrcYOBy2i5zQ/o.jpg", "is_closed": false, "url": "https://www.yelp.com/biz/etna-restaurant-and-wine-bar-cleveland?adjust_creative=VZ7v1vIln-RpGHH5_leTWQ&utm_campaign=yelp_api_v3&utm_medium=api_v3_business_search&utm_source=VZ7v1vIln-RpGHH5_leTWQ", "review_count": 88, "categories": [{"alias": "italian", "title": "Italian"}, {"alias": "wine_bars", "title": "Wine Bars"}, {"alias": "seafood", "title": "Seafood"}], "rating": 4.0, "coordinates": {"latitude": 41.50882, "longitude": -81.59947}, "transactions": ["delivery"], "price": "$$", "location": {"address1": "11919 Mayfield Rd", "address2": "", "address3": "", "city": "Cleveland", "zip_code": "44106", "country": "US", "state": "OH", "display_address": ["11919 Mayfield Rd", "Cleveland, OH 44106"]}, "phone": "+12167917670", "display_phone": "(216) 791-7670", "distance": 7236.454178008639}, {"id": "D4h0fi8uVj62nkffV7Impw", "alias": "ohio-city-bbq-cleveland-2", "name": "Ohio City BBQ", "image_url": "https://s3-media3.fl.yelpcdn.com/bphoto/rASIGelgH7Xd9y9UNkSx1A/o.jpg", "is_closed": false, "url": "https://www.yelp.com/biz/ohio-city-bbq-cleveland-2?adjust_creative=VZ7v1vIln-RpGHH5_leTWQ&utm_campaign=yelp_api_v3&utm_medium=api_v3_business_search&utm_source=VZ7v1vIln-RpGHH5_leTWQ", "review_count": 100, "categories": [{"alias": "bbq", "title": "Barbeque"}], "rating": 4.0, "coordinates": {"latitude": 41.48053, "longitude": -81.71251}, "transactions": ["pickup", "delivery"], "price": "$$", "location": {"address1": "3829 Lorain Ave", "address2": null, "address3": "", "city": "Cleveland", "zip_code": "44113", "country": "US", "state": "OH", "display_address": ["3829 Lorain Ave", "Cleveland, OH 44113"]}, "phone": "+12164175987", "display_phone": "(216) 417-5987", "distance": 3439.521154048969}, {"id": "KnaIbUk-eQm_tEsENO1oFw", "alias": "ohio-kabob-grill-cleveland", "name": "Ohio Kabob Grill", "image_url": "https://s3-media2.fl.yelpcdn.com/bphoto/S3cyugaBkqJnMAKM5OmVaw/o.jpg", "is_closed": false, "url": "https://www.yelp.com/biz/ohio-kabob-grill-cleveland?adjust_creative=VZ7v1vIln-RpGHH5_leTWQ&utm_campaign=yelp_api_v3&utm_medium=api_v3_business_search&utm_source=VZ7v1vIln-RpGHH5_leTWQ", "review_count": 122, "categories": [{"alias": "afghani", "title": "Afghan"}, {"alias": "mediterranean", "title": "Mediterranean"}], "rating": 4.5, "coordinates": {"latitude": 41.46111, "longitude": -81.76876}, "transactions": ["delivery"], "price": "$$", "location": {"address1": "3359 W 117 St", "address2": null, "address3": "", "city": "Cleveland", "zip_code": "44111", "country": "US", "state": "OH", "display_address": ["3359 W 117 St", "Cleveland, OH 44111"]}, "phone": "+12166754775", "display_phone": "(216) 675-4775", "distance": 8128.2509520017775}, {"id": "B7pVrERldmQmrbkSU_wjgg", "alias": "hansa-brewery-cleveland", "name": "Hansa Brewery", "image_url": "https://s3-media1.fl.yelpcdn.com/bphoto/aX9o9n-iWQGOihL07YdQfQ/o.jpg", "is_closed": false, "url": "https://www.yelp.com/biz/hansa-brewery-cleveland?adjust_creative=VZ7v1vIln-RpGHH5_leTWQ&utm_campaign=yelp_api_v3&utm_medium=api_v3_business_search&utm_source=VZ7v1vIln-RpGHH5_leTWQ", "review_count": 135, "categories": [{"alias": "breweries", "title": "Breweries"}, {"alias": "german", "title": "German"}], "rating": 4.0, "coordinates": {"latitude": 41.48327, "longitude": -81.70479}, "transactions": ["delivery"], "price": "$$", "location": {"address1": "2717 Lorain Ave", "address2": "", "address3": null, "city": "Cleveland", "zip_code": "44113", "country": "US", "state": "OH", "display_address": ["2717 Lorain Ave", "Cleveland, OH 44113"]}, "phone": "+12166316585", "display_phone": "(216) 631-6585", "distance": 2921.520277606641}, {"id": "2tfMXjOotr1r168mVttUmQ", "alias": "local-west-cleveland", "name": "Local West", "image_url": "https://s3-media3.fl.yelpcdn.com/bphoto/4hlhcuJ36r3Svix2IFHRBg/o.jpg", "is_closed": false, "url": "https://www.yelp.com/biz/local-west-cleveland?adjust_creative=VZ7v1vIln-RpGHH5_leTWQ&utm_campaign=yelp_api_v3&utm_medium=api_v3_business_search&utm_source=VZ7v1vIln-RpGHH5_leTWQ", "review_count": 158, "categories": [{"alias": "gastropubs", "title": "Gastropubs"}, {"alias": "burgers", "title": "Burgers"}, {"alias": "tradamerican", "title": "American (Traditional)"}], "rating": 4.5, "coordinates": {"latitude": 41.4828415, "longitude": -81.7355576}, "transactions": ["delivery"], "price": "$$", "location": {"address1": "7400 Detroit Ave", "address2": "", "address3": "", "city": "Cleveland", "zip_code": "44102", "country": "US", "state": "OH", "display_address": ["7400 Detroit Ave", "Cleveland, OH 44102"]}, "phone": "+12164177001", "display_phone": "(216) 417-7001", "distance": 5368.098297004771}, {"id": "M4RwZL5bTBTwwbVcoaDbtw", "alias": "rowley-inn-cleveland", "name": "Rowley Inn", "image_url": "https://s3-media2.fl.yelpcdn.com/bphoto/y-d01iTOqCeIvfvl_x1orQ/o.jpg", "is_closed": false, "url": "https://www.yelp.com/biz/rowley-inn-cleveland?adjust_creative=VZ7v1vIln-RpGHH5_leTWQ&utm_campaign=yelp_api_v3&utm_medium=api_v3_business_search&utm_source=VZ7v1vIln-RpGHH5_leTWQ", "review_count": 185, "categories": [{"alias": "pubs", "title": "Pubs"}, {"alias": "gastropubs", "title": "Gastropubs"}, {"alias": "breakfast_brunch", "title": "Breakfast & Brunch"}], "rating": 4.5, "coordinates": {"latitude": 41.4689993, "longitude": -81.6878849}, "transactions": ["delivery"], "price": "$$", "location": {"address1": "1104 Rowley Ave", "address2": "", "address3": "", "city": "Cleveland", "zip_code": "44109", "country": "US", "state": "OH", "display_address": ["1104 Rowley Ave", "Cleveland, OH 44109"]}, "phone": "+12167955345", "display_phone": "(216) 795-5345", "distance": 1383.4300810329428}, {"id": "-dFfucHmOtgDmDneps-mgA", "alias": "mallorca-cleveland", "name": "Mallorca", "image_url": "https://s3-media3.fl.yelpcdn.com/bphoto/SnS43g4p3H6OZTnW8-xgZw/o.jpg", "is_closed": false, "url": "https://www.yelp.com/biz/mallorca-cleveland?adjust_creative=VZ7v1vIln-RpGHH5_leTWQ&utm_campaign=yelp_api_v3&utm_medium=api_v3_business_search&utm_source=VZ7v1vIln-RpGHH5_leTWQ", "review_count": 229, "categories": [{"alias": "spanish", "title": "Spanish"}, {"alias": "portuguese", "title": "Portuguese"}, {"alias": "seafood", "title": "Seafood"}], "rating": 3.5, "coordinates": {"latitude": 41.49823, "longitude": -81.70014}, "transactions": ["pickup", "delivery"], "price": "$$$", "location": {"address1": "1390 W 9th St", "address2": "", "address3": "", "city": "Cleveland", "zip_code": "44113", "country": "US", "state": "OH", "display_address": ["1390 W 9th St", "Cleveland, OH 44113"]}, "phone": "+12166879494", "display_phone": "(216) 687-9494", "distance": 3592.1202627327666}, {"id": "udFcIcbWbxrO8uLF95WnQg", "alias": "cowell-and-hubbard-cleveland", "name": "Cowell & Hubbard", "image_url": "https://s3-media4.fl.yelpcdn.com/bphoto/nI6WReTR1iZ0m_RasYVzyQ/o.jpg", "is_closed": false, "url": "https://www.yelp.com/biz/cowell-and-hubbard-cleveland?adjust_creative=VZ7v1vIln-RpGHH5_leTWQ&utm_campaign=yelp_api_v3&utm_medium=api_v3_business_search&utm_source=VZ7v1vIln-RpGHH5_leTWQ", "review_count": 201, "categories": [{"alias": "french", "title": "French"}, {"alias": "bars", "title": "Bars"}], "rating": 4.0, "coordinates": {"latitude": 41.5009140742561, "longitude": -81.6828721761704}, "transactions": ["delivery"], "price": "$$$", "location": {"address1": "1305 Euclid Ave", "address2": "", "address3": "", "city": "Cleveland", "zip_code": "44115", "country": "US", "state": "OH", "display_address": ["1305 Euclid Ave", "Cleveland, OH 44115"]}, "phone": "+12164790555", "display_phone": "(216) 479-0555", "distance": 3180.2001005883403}, {"id": "Q373Y-siDCSP63rU_F3qMw", "alias": "cleveland-mofongo-latin-grill-cleveland", "name": "Cleveland Mofongo Latin Grill", "image_url": "https://s3-media1.fl.yelpcdn.com/bphoto/5PTFc1mPmUyJdzaQ2idImA/o.jpg", "is_closed": false, "url": "https://www.yelp.com/biz/cleveland-mofongo-latin-grill-cleveland?adjust_creative=VZ7v1vIln-RpGHH5_leTWQ&utm_campaign=yelp_api_v3&utm_medium=api_v3_business_search&utm_source=VZ7v1vIln-RpGHH5_leTWQ", "review_count": 50, "categories": [{"alias": "latin", "title": "Latin American"}, {"alias": "caribbean", "title": "Caribbean"}], "rating": 5.0, "coordinates": {"latitude": 41.4617422, "longitude": -81.7683554}, "transactions": ["delivery"], "price": "$", "location": {"address1": "11621 Lorain Ave", "address2": null, "address3": "", "city": "Cleveland", "zip_code": "44111", "country": "US", "state": "OH", "display_address": ["11621 Lorain Ave", "Cleveland, OH 44111"]}, "phone": "+12164155323", "display_phone": "(216) 415-5323", "distance": 8102.917952984627}, {"id": "5CqM8dr3d3LI_B-1_-5U7A", "alias": "cibreo-italian-kitchen-cleveland", "name": "Cibreo Italian Kitchen", "image_url": "https://s3-media3.fl.yelpcdn.com/bphoto/FW2wxvWZj094vY69lJWCgg/o.jpg", "is_closed": false, "url": "https://www.yelp.com/biz/cibreo-italian-kitchen-cleveland?adjust_creative=VZ7v1vIln-RpGHH5_leTWQ&utm_campaign=yelp_api_v3&utm_medium=api_v3_business_search&utm_source=VZ7v1vIln-RpGHH5_leTWQ", "review_count": 145, "categories": [{"alias": "italian", "title": "Italian"}], "rating": 3.5, "coordinates": {"latitude": 41.500865, "longitude": -81.681007}, "transactions": ["delivery"], "price": "$$", "location": {"address1": "1438 Euclid Ave", "address2": "", "address3": "", "city": "Cleveland", "zip_code": "44115", "country": "US", "state": "OH", "display_address": ["1438 Euclid Ave", "Cleveland, OH 44115"]}, "phone": "+12168629212", "display_phone": "(216) 862-9212", "distance": 3135.6784026851924}, {"id": "w1rHHt72BON3K_C4caDDXw", "alias": "pupuseria-katarina-cleveland", "name": "Pupuseria Katarina", "image_url": "https://s3-media3.fl.yelpcdn.com/bphoto/nEIpDqergsojc0UD0mjQKA/o.jpg", "is_closed": false, "url": "https://www.yelp.com/biz/pupuseria-katarina-cleveland?adjust_creative=VZ7v1vIln-RpGHH5_leTWQ&utm_campaign=yelp_api_v3&utm_medium=api_v3_business_search&utm_source=VZ7v1vIln-RpGHH5_leTWQ", "review_count": 70, "categories": [{"alias": "salvadoran", "title": "Salvadoran"}], "rating": 4.5, "coordinates": {"latitude": 41.4190574, "longitude": -81.6891499}, "transactions": ["delivery"], "price": "$", "location": {"address1": "1409 Brookpark Rd", "address2": "", "address3": "", "city": "Cleveland", "zip_code": "44109", "country": "US", "state": "OH", "display_address": ["1409 Brookpark Rd", "Cleveland, OH 44109"]}, "phone": "+12163316624", "display_phone": "(216) 331-6624", "distance": 6204.49671038031}, {"id": "i2uWqJaTTazr9Y0RU9tHBQ", "alias": "the-palazzo-restaurant-cleveland", "name": "The Palazzo Restaurant", "image_url": "https://s3-media1.fl.yelpcdn.com/bphoto/0I0Aol4d2QuBeP0gUhZg9w/o.jpg", "is_closed": false, "url": "https://www.yelp.com/biz/the-palazzo-restaurant-cleveland?adjust_creative=VZ7v1vIln-RpGHH5_leTWQ&utm_campaign=yelp_api_v3&utm_medium=api_v3_business_search&utm_source=VZ7v1vIln-RpGHH5_leTWQ", "review_count": 29, "categories": [{"alias": "italian", "title": "Italian"}], "rating": 5.0, "coordinates": {"latitude": 41.4796295, "longitude": -81.7539368}, "transactions": ["delivery"], "location": {"address1": "10031 Detroit Ave", "address2": "", "address3": "", "city": "Cleveland", "zip_code": "44102", "country": "US", "state": "OH", "display_address": ["10031 Detroit Ave", "Cleveland, OH 44102"]}, "phone": "+12164177005", "display_phone": "(216) 417-7005", "distance": 6831.343397717429}, {"id": "GCr0eTVnVzFE72c-VJezoQ", "alias": "angelos-nido-italia-cleveland", "name": "Angelo's Nido Italia", "image_url": "https://s3-media4.fl.yelpcdn.com/bphoto/VtQuHd8YdbiyZZx-bxogow/o.jpg", "is_closed": false, "url": "https://www.yelp.com/biz/angelos-nido-italia-cleveland?adjust_creative=VZ7v1vIln-RpGHH5_leTWQ&utm_campaign=yelp_api_v3&utm_medium=api_v3_business_search&utm_source=VZ7v1vIln-RpGHH5_leTWQ", "review_count": 111, "categories": [{"alias": "italian", "title": "Italian"}, {"alias": "wine_bars", "title": "Wine Bars"}], "rating": 4.0, "coordinates": {"latitude": 41.50835, "longitude": -81.59853}, "transactions": ["delivery"], "price": "$$", "location": {"address1": "12020 Mayfield Rd", "address2": "", "address3": "", "city": "Cleveland", "zip_code": "44106", "country": "US", "state": "OH", "display_address": ["12020 Mayfield Rd", "Cleveland, OH 44106"]}, "phone": "+12164210221", "display_phone": "(216) 421-0221", "distance": 7270.970019940689}, {"id": "anzCdD5eIEHwydTpXhLlUA", "alias": "happy-dog-cleveland", "name": "Happy Dog", "image_url": "https://s3-media3.fl.yelpcdn.com/bphoto/UY0DRndVyDANgkKHOT7bqw/o.jpg", "is_closed": false, "url": "https://www.yelp.com/biz/happy-dog-cleveland?adjust_creative=VZ7v1vIln-RpGHH5_leTWQ&utm_campaign=yelp_api_v3&utm_medium=api_v3_business_search&utm_source=VZ7v1vIln-RpGHH5_leTWQ", "review_count": 656, "categories": [{"alias": "bars", "title": "Bars"}, {"alias": "musicvenues", "title": "Music Venues"}, {"alias": "hotdog", "title": "Hot Dogs"}], "rating": 4.0, "coordinates": {"latitude": 41.4848327636719, "longitude": -81.7265472412109}, "transactions": ["delivery"], "price": "$", "location": {"address1": "5801 Detroit Ave", "address2": "", "address3": "", "city": "Cleveland", "zip_code": "44102", "country": "US", "state": "OH", "display_address": ["5801 Detroit Ave", "Cleveland, OH 44102"]}, "phone": "+12166519474", "display_phone": "(216) 651-9474", "distance": 4685.922533879148}, {"id": "AbPQf-X7awuPFDULiJ43bg", "alias": "superior-pho-cleveland", "name": "Superior Pho", "image_url": "https://s3-media3.fl.yelpcdn.com/bphoto/FJFfJ9FUTDC3kWzTho38Cg/o.jpg", "is_closed": false, "url": "https://www.yelp.com/biz/superior-pho-cleveland?adjust_creative=VZ7v1vIln-RpGHH5_leTWQ&utm_campaign=yelp_api_v3&utm_medium=api_v3_business_search&utm_source=VZ7v1vIln-RpGHH5_leTWQ", "review_count": 640, "categories": [{"alias": "vietnamese", "title": "Vietnamese"}, {"alias": "soup", "title": "Soup"}, {"alias": "sandwiches", "title": "Sandwiches"}], "rating": 4.0, "coordinates": {"latitude": 41.51056, "longitude": -81.6698}, "transactions": ["pickup", "delivery"], "price": "$", "location": {"address1": "3030 Superior Ave E", "address2": "Ste E", "address3": "", "city": "Cleveland", "zip_code": "44114", "country": "US", "state": "OH", "display_address": ["3030 Superior Ave E", "Ste E", "Cleveland, OH 44114"]}, "phone": "+12167817462", "display_phone": "(216) 781-7462", "distance": 4127.849574573042}, {"id": "oODLpNDZwO8nU4jZDWRlVA", "alias": "blue-habanero-cleveland", "name": "Blue Habanero", "image_url": "https://s3-media4.fl.yelpcdn.com/bphoto/huYwJW5fnV3WAX6dACnUdg/o.jpg", "is_closed": false, "url": "https://www.yelp.com/biz/blue-habanero-cleveland?adjust_creative=VZ7v1vIln-RpGHH5_leTWQ&utm_campaign=yelp_api_v3&utm_medium=api_v3_business_search&utm_source=VZ7v1vIln-RpGHH5_leTWQ", "review_count": 127, "categories": [{"alias": "newmexican", "title": "New Mexican Cuisine"}, {"alias": "tacos", "title": "Tacos"}, {"alias": "cocktailbars", "title": "Cocktail Bars"}], "rating": 4.0, "coordinates": {"latitude": 41.48424, "longitude": -81.73008}, "transactions": ["pickup", "delivery"], "price": "$$", "location": {"address1": "6416 Detroit Ave", "address2": null, "address3": "", "city": "Cleveland", "zip_code": "44102", "country": "US", "state": "OH", "display_address": ["6416 Detroit Ave", "Cleveland, OH 44102"]}, "phone": "+12164651818", "display_phone": "(216) 465-1818", "distance": 4948.780404908392}, {"id": "cF98fzqrMnikhXhuSz6ruQ", "alias": "the-oak-barrel-valley-view", "name": "The Oak Barrel", "image_url": "https://s3-media1.fl.yelpcdn.com/bphoto/USkuuOhLRbeWdTdjwjKE-Q/o.jpg", "is_closed": false, "url": "https://www.yelp.com/biz/the-oak-barrel-valley-view?adjust_creative=VZ7v1vIln-RpGHH5_leTWQ&utm_campaign=yelp_api_v3&utm_medium=api_v3_business_search&utm_source=VZ7v1vIln-RpGHH5_leTWQ", "review_count": 455, "categories": [{"alias": "brasseries", "title": "Brasseries"}, {"alias": "gastropubs", "title": "Gastropubs"}, {"alias": "newamerican", "title": "American (New)"}], "rating": 4.0, "coordinates": {"latitude": 41.3998057229973, "longitude": -81.6257270298461}, "transactions": ["delivery"], "price": "$$", "location": {"address1": "5975 Canal Rd", "address2": "", "address3": "", "city": "Valley View", "zip_code": "44125", "country": "US", "state": "OH", "display_address": ["5975 Canal Rd", "Valley View, OH 44125"]}, "phone": "+12165203640", "display_phone": "(216) 520-3640", "distance": 9061.686674196637}, {"id": "Tc511yME8axDPq2J6woxkg", "alias": "lockkeepers-valley-view", "name": "LockKeepers", "image_url": "https://s3-media1.fl.yelpcdn.com/bphoto/ax1j5pKJYLkmIxcchcI7-Q/o.jpg", "is_closed": false, "url": "https://www.yelp.com/biz/lockkeepers-valley-view?adjust_creative=VZ7v1vIln-RpGHH5_leTWQ&utm_campaign=yelp_api_v3&utm_medium=api_v3_business_search&utm_source=VZ7v1vIln-RpGHH5_leTWQ", "review_count": 214, "categories": [{"alias": "newamerican", "title": "American (New)"}, {"alias": "seafood", "title": "Seafood"}, {"alias": "italian", "title": "Italian"}], "rating": 4.5, "coordinates": {"latitude": 41.3939765178135, "longitude": -81.6286991483995}, "transactions": ["delivery"], "price": "$$", "location": {"address1": "8001 Rockside Rd", "address2": "", "address3": "", "city": "Valley View", "zip_code": "44125", "country": "US", "state": "OH", "display_address": ["8001 Rockside Rd", "Valley View, OH 44125"]}, "phone": "+12165249404", "display_phone": "(216) 524-9404", "distance": 9554.140238736783}, {"id": "jmeDvVx3wzCBlTBN7XNb-Q", "alias": "alley-cat-oyster-bar-cleveland", "name": "Alley Cat Oyster Bar", "image_url": "https://s3-media3.fl.yelpcdn.com/bphoto/YeBOA1jyPfXrSYcokd0Krg/o.jpg", "is_closed": false, "url": "https://www.yelp.com/biz/alley-cat-oyster-bar-cleveland?adjust_creative=VZ7v1vIln-RpGHH5_leTWQ&utm_campaign=yelp_api_v3&utm_medium=api_v3_business_search&utm_source=VZ7v1vIln-RpGHH5_leTWQ", "review_count": 369, "categories": [{"alias": "newamerican", "title": "American (New)"}, {"alias": "seafood", "title": "Seafood"}], "rating": 3.5, "coordinates": {"latitude": 41.4995451056853, "longitude": -81.70696251688}, "transactions": ["delivery"], "price": "$$$", "location": {"address1": "1056 Old River Rd", "address2": "", "address3": "", "city": "Cleveland", "zip_code": "44113", "country": "US", "state": "OH", "display_address": ["1056 Old River Rd", "Cleveland, OH 44113"]}, "phone": "+12165749999", "display_phone": "(216) 574-9999", "distance": 4092.172189498244}, {"id": "ZxYPXtZQ-6DFyl4VQkTELQ", "alias": "washington-place-bistro-cleveland", "name": "Washington Place Bistro", "image_url": "https://s3-media3.fl.yelpcdn.com/bphoto/EDFvgUIF0oV1IVm-fss_fA/o.jpg", "is_closed": false, "url": "https://www.yelp.com/biz/washington-place-bistro-cleveland?adjust_creative=VZ7v1vIln-RpGHH5_leTWQ&utm_campaign=yelp_api_v3&utm_medium=api_v3_business_search&utm_source=VZ7v1vIln-RpGHH5_leTWQ", "review_count": 172, "categories": [{"alias": "newamerican", "title": "American (New)"}], "rating": 4.0, "coordinates": {"latitude": 41.504454, "longitude": -81.600514}, "transactions": ["delivery"], "price": "$$", "location": {"address1": "2203 Cornell Rd", "address2": "", "address3": "", "city": "Cleveland", "zip_code": "44106", "country": "US", "state": "OH", "display_address": ["2203 Cornell Rd", "Cleveland, OH 44106"]}, "phone": "+12167916500", "display_phone": "(216) 791-6500", "distance": 6908.330335304932}, {"id": "IYpaW7h8aPYKIK84_ZKMIg", "alias": "puente-viejo-cleveland", "name": "Puente Viejo", "image_url": "https://s3-media1.fl.yelpcdn.com/bphoto/ajxjsVyKGxc-nz3L6HVE8Q/o.jpg", "is_closed": false, "url": "https://www.yelp.com/biz/puente-viejo-cleveland?adjust_creative=VZ7v1vIln-RpGHH5_leTWQ&utm_campaign=yelp_api_v3&utm_medium=api_v3_business_search&utm_source=VZ7v1vIln-RpGHH5_leTWQ", "review_count": 171, "categories": [{"alias": "mexican", "title": "Mexican"}, {"alias": "bars", "title": "Bars"}], "rating": 4.0, "coordinates": {"latitude": 41.5002431224198, "longitude": -81.6830575838685}, "transactions": ["delivery"], "price": "$$", "location": {"address1": "1220 Huron Rd E", "address2": "", "address3": null, "city": "Cleveland", "zip_code": "44115", "country": "US", "state": "OH", "display_address": ["1220 Huron Rd E", "Cleveland, OH 44115"]}, "phone": "+12167132689", "display_phone": "(216) 713-2689", "distance": 3112.928953912264}, {"id": "yh0mvFCjZuMKy562h2_d_A", "alias": "minh-anh-vietnamese-restaurant-cleveland", "name": "Minh-Anh Vietnamese Restaurant", "image_url": "https://s3-media1.fl.yelpcdn.com/bphoto/FYavgTbyp9yJzwoKYw0tjw/o.jpg", "is_closed": false, "url": "https://www.yelp.com/biz/minh-anh-vietnamese-restaurant-cleveland?adjust_creative=VZ7v1vIln-RpGHH5_leTWQ&utm_campaign=yelp_api_v3&utm_medium=api_v3_business_search&utm_source=VZ7v1vIln-RpGHH5_leTWQ", "review_count": 225, "categories": [{"alias": "vietnamese", "title": "Vietnamese"}], "rating": 4.0, "coordinates": {"latitude": 41.4856645647016, "longitude": -81.7243166948682}, "transactions": ["delivery"], "price": "$$", "location": {"address1": "5428 Detroit Ave", "address2": "", "address3": "", "city": "Cleveland", "zip_code": "44102", "country": "US", "state": "OH", "display_address": ["5428 Detroit Ave", "Cleveland, OH 44102"]}, "phone": "+12169619671", "display_phone": "(216) 961-9671", "distance": 4580.95717499149}, {"id": "ddlnpDxGDDxGGoG_dVXwiw", "alias": "felice-cleveland", "name": "Felice", "image_url": "https://s3-media1.fl.yelpcdn.com/bphoto/LQ4TdEKyF1e0QPaX7s-dnw/o.jpg", "is_closed": false, "url": "https://www.yelp.com/biz/felice-cleveland?adjust_creative=VZ7v1vIln-RpGHH5_leTWQ&utm_campaign=yelp_api_v3&utm_medium=api_v3_business_search&utm_source=VZ7v1vIln-RpGHH5_leTWQ", "review_count": 195, "categories": [{"alias": "newamerican", "title": "American (New)"}, {"alias": "cafes", "title": "Cafes"}, {"alias": "bars", "title": "Bars"}], "rating": 4.0, "coordinates": {"latitude": 41.48759, "longitude": -81.59597}, "transactions": ["delivery"], "price": "$$", "location": {"address1": "12502 Larchmere Blvd", "address2": "", "address3": "", "city": "Cleveland", "zip_code": "44120", "country": "US", "state": "OH", "display_address": ["12502 Larchmere Blvd", "Cleveland, OH 44120"]}, "phone": "+12167910918", "display_phone": "(216) 791-0918", "distance": 6552.95163893619}, {"id": "RiGtSzVzc42CKjyZkDxZRA", "alias": "crop-bistro-and-bar-cleveland-3", "name": "Crop Bistro & Bar", "image_url": "https://s3-media2.fl.yelpcdn.com/bphoto/8-zFQXCZcVKfGvlHWTy9oA/o.jpg", "is_closed": false, "url": "https://www.yelp.com/biz/crop-bistro-and-bar-cleveland-3?adjust_creative=VZ7v1vIln-RpGHH5_leTWQ&utm_campaign=yelp_api_v3&utm_medium=api_v3_business_search&utm_source=VZ7v1vIln-RpGHH5_leTWQ", "review_count": 460, "categories": [{"alias": "tradamerican", "title": "American (Traditional)"}, {"alias": "bars", "title": "Bars"}, {"alias": "venues", "title": "Venues & Event Spaces"}], "rating": 4.0, "coordinates": {"latitude": 41.4837780362288, "longitude": -81.7038367705696}, "transactions": ["delivery"], "price": "$$$", "location": {"address1": "2537 Lorain Ave", "address2": "", "address3": "", "city": "Cleveland", "zip_code": "44113", "country": "US", "state": "OH", "display_address": ["2537 Lorain Ave", "Cleveland, OH 44113"]}, "phone": "+12166962767", "display_phone": "(216) 696-2767", "distance": 2863.857899282609}, {"id": "gIZgDLdt-PW1j7QjV6z2Lg", "alias": "hanabi-japanese-restaurant-cleveland", "name": "Hanabi Japanese Restaurant", "image_url": "https://s3-media4.fl.yelpcdn.com/bphoto/SrAOv8zSoVIF-lLXkm9sFA/o.jpg", "is_closed": false, "url": "https://www.yelp.com/biz/hanabi-japanese-restaurant-cleveland?adjust_creative=VZ7v1vIln-RpGHH5_leTWQ&utm_campaign=yelp_api_v3&utm_medium=api_v3_business_search&utm_source=VZ7v1vIln-RpGHH5_leTWQ", "review_count": 118, "categories": [{"alias": "japanese", "title": "Japanese"}, {"alias": "sushi", "title": "Sushi Bars"}], "rating": 4.0, "coordinates": {"latitude": 41.4999177314058, "longitude": -81.6987037927706}, "transactions": ["pickup", "delivery"], "price": "$$", "location": {"address1": "1313 W 6th St", "address2": "", "address3": "", "city": "Cleveland", "zip_code": "44113", "country": "US", "state": "OH", "display_address": ["1313 W 6th St", "Cleveland, OH 44113"]}, "phone": "+12162985060", "display_phone": "(216) 298-5060", "distance": 3673.729739855231}, {"id": "fY2LdUf03wdqLcrsA9xp9g", "alias": "citizen-pie-cleveland-2", "name": "Citizen Pie", "image_url": "https://s3-media2.fl.yelpcdn.com/bphoto/hX11212odAwshl_UBe5PEA/o.jpg", "is_closed": false, "url": "https://www.yelp.com/biz/citizen-pie-cleveland-2?adjust_creative=VZ7v1vIln-RpGHH5_leTWQ&utm_campaign=yelp_api_v3&utm_medium=api_v3_business_search&utm_source=VZ7v1vIln-RpGHH5_leTWQ", "review_count": 80, "categories": [{"alias": "pizza", "title": "Pizza"}], "rating": 4.5, "coordinates": {"latitude": 41.48227, "longitude": -81.70226}, "transactions": ["delivery"], "price": "$$", "location": {"address1": "2144 W 25th St", "address2": "", "address3": null, "city": "Cleveland", "zip_code": "44113", "country": "US", "state": "OH", "display_address": ["2144 W 25th St", "Cleveland, OH 44113"]}, "phone": "+12168601388", "display_phone": "(216) 860-1388", "distance": 2679.2957574681545}, {"id": "0-jqS5y4D-6Zohb3Q375ZQ", "alias": "ninja-city-kitchen-and-bar-cleveland-5", "name": "Ninja City Kitchen and Bar", "image_url": "https://s3-media3.fl.yelpcdn.com/bphoto/kiUXnuMczTQJNwBTIkTfIg/o.jpg", "is_closed": false, "url": "https://www.yelp.com/biz/ninja-city-kitchen-and-bar-cleveland-5?adjust_creative=VZ7v1vIln-RpGHH5_leTWQ&utm_campaign=yelp_api_v3&utm_medium=api_v3_business_search&utm_source=VZ7v1vIln-RpGHH5_leTWQ", "review_count": 96, "categories": [{"alias": "asianfusion", "title": "Asian Fusion"}, {"alias": "soup", "title": "Soup"}, {"alias": "chicken_wings", "title": "Chicken Wings"}], "rating": 4.0, "coordinates": {"latitude": 41.4839557604268, "longitude": -81.7316197272125}, "transactions": ["delivery"], "price": "$$", "location": {"address1": "6706 Detroit Ave", "address2": "", "address3": null, "city": "Cleveland", "zip_code": "44102", "country": "US", "state": "OH", "display_address": ["6706 Detroit Ave", "Cleveland, OH 44102"]}, "phone": "+12168627200", "display_phone": "(216) 862-7200", "distance": 5073.643775742607}, {"id": "nIJr76IGIGS3nkmieY3Vow", "alias": "trattoria-roman-gardens-cleveland", "name": "Trattoria Roman Gardens", "image_url": "https://s3-media4.fl.yelpcdn.com/bphoto/XNjzJUeEJcycjeme0A7Lhg/o.jpg", "is_closed": false, "url": "https://www.yelp.com/biz/trattoria-roman-gardens-cleveland?adjust_creative=VZ7v1vIln-RpGHH5_leTWQ&utm_campaign=yelp_api_v3&utm_medium=api_v3_business_search&utm_source=VZ7v1vIln-RpGHH5_leTWQ", "review_count": 219, "categories": [{"alias": "italian", "title": "Italian"}], "rating": 3.5, "coordinates": {"latitude": 41.50888, "longitude": -81.5977}, "transactions": ["delivery"], "price": "$$", "location": {"address1": "12207 Mayfield Rd", "address2": "", "address3": "", "city": "Cleveland", "zip_code": "44106", "country": "US", "state": "OH", "display_address": ["12207 Mayfield Rd", "Cleveland, OH 44106"]}, "phone": "+12164212700", "display_phone": "(216) 421-2700", "distance": 7361.053735694372}, {"id": "32DUrg5Thezf1eGsWK6Gdw", "alias": "moes-tavern-brewing-cleveland-2", "name": "Moe's Tavern Brewing", "image_url": "https://s3-media4.fl.yelpcdn.com/bphoto/nY1cCglO2ZhMZBX253Gbiw/o.jpg", "is_closed": false, "url": "https://www.yelp.com/biz/moes-tavern-brewing-cleveland-2?adjust_creative=VZ7v1vIln-RpGHH5_leTWQ&utm_campaign=yelp_api_v3&utm_medium=api_v3_business_search&utm_source=VZ7v1vIln-RpGHH5_leTWQ", "review_count": 44, "categories": [{"alias": "pizza", "title": "Pizza"}, {"alias": "brewpubs", "title": "Brewpubs"}, {"alias": "cocktailbars", "title": "Cocktail Bars"}], "rating": 4.5, "coordinates": {"latitude": 41.5039, "longitude": -81.68079}, "transactions": ["pickup", "delivery"], "price": "$$", "location": {"address1": "1740 E 17th St", "address2": null, "address3": null, "city": "Cleveland", "zip_code": "44114", "country": "US", "state": "OH", "display_address": ["1740 E 17th St", "Cleveland, OH 44114"]}, "phone": "+12163343143", "display_phone": "(216) 334-3143", "distance": 3462.714500119318}, {"id": "RpMp700t8ON-2AvAAcohxA", "alias": "ball-ball-waffle-cleveland", "name": "Ball Ball Waffle", "image_url": "https://s3-media3.fl.yelpcdn.com/bphoto/RHrLSwNff_cu9VrKZBlVow/o.jpg", "is_closed": false, "url": "https://www.yelp.com/biz/ball-ball-waffle-cleveland?adjust_creative=VZ7v1vIln-RpGHH5_leTWQ&utm_campaign=yelp_api_v3&utm_medium=api_v3_business_search&utm_source=VZ7v1vIln-RpGHH5_leTWQ", "review_count": 28, "categories": [{"alias": "hkcafe", "title": "Hong Kong Style Cafe"}, {"alias": "waffles", "title": "Waffles"}], "rating": 4.5, "coordinates": {"latitude": 41.50811, "longitude": -81.6691}, "transactions": [], "location": {"address1": "2999 Payne Ave", "address2": "Ste 126", "address3": null, "city": "Cleveland", "zip_code": "44114", "country": "US", "state": "OH", "display_address": ["2999 Payne Ave", "Ste 126", "Cleveland, OH 44114"]}, "phone": "+12162823834", "display_phone": "(216) 282-3834", "distance": 3908.3633322451733}], "total": 1500, "region": {"center": {"longitude": -81.67236328125, "latitude": 41.47341857719741}}}