{"businesses": [{"id": "vdloJPM3bSpQTMlwdFek2A", "alias": "butcher-and-the-brewer-cleveland", "name": "Butcher and the Brewer", "image_url": "https://s3-media3.fl.yelpcdn.com/bphoto/HwBnXPqJpfwakFC--N84OA/o.jpg", "is_closed": false, "url": "https://www.yelp.com/biz/butcher-and-the-brewer-cleveland?adjust_creative=VZ7v1vIln-RpGHH5_leTWQ&utm_campaign=yelp_api_v3&utm_medium=api_v3_business_search&utm_source=VZ7v1vIln-RpGHH5_leTWQ", "review_count": 708, "categories": [{"alias": "newamerican", "title": "American (New)"}, {"alias": "pubs", "title": "Pubs"}, {"alias": "breweries", "title": "Breweries"}], "rating": 4.0, "coordinates": {"latitude": 41.4992176741362, "longitude": -81.6901288926601}, "transactions": ["delivery"], "price": "$$", "location": {"address1": "2043 E 4th St", "address2": "", "address3": "", "city": "Cleveland", "zip_code": "44115", "country": "US", "state": "OH", "display_address": ["2043 E 4th St", "Cleveland, OH 44115"]}, "phone": "+12163310805", "display_phone": "(216) 331-0805", "distance": 3227.9234428051445}, {"id": "OD2dbQTKN7FS01fHzZqqzA", "alias": "the-bourbon-street-barrel-room-cleveland", "name": "The Bourbon Street Barrel Room", "image_url": "https://s3-media2.fl.yelpcdn.com/bphoto/aazypIMeP-9B148-ZIizgw/o.jpg", "is_closed": false, "url": "https://www.yelp.com/biz/the-bourbon-street-barrel-room-cleveland?adjust_creative=VZ7v1vIln-RpGHH5_leTWQ&utm_campaign=yelp_api_v3&utm_medium=api_v3_business_search&utm_source=VZ7v1vIln-RpGHH5_leTWQ", "review_count": 490, "categories": [{"alias": "bars", "title": "Bars"}, {"alias": "cajun", "title": "Cajun/Creole"}], "rating": 4.0, "coordinates": {"latitude": 41.4800421884869, "longitude": -81.6850350203755}, "transactions": ["delivery"], "price": "$$", "location": {"address1": "2393 Professor Ave", "address2": "", "address3": "", "city": "Cleveland", "zip_code": "44113", "country": "US", "state": "OH", "display_address": ["2393 Professor Ave", "Cleveland, OH 44113"]}, "phone": "+12162984400", "display_phone": "(216) 298-4400", "distance": 1287.210840338824}, {"id": "1gQrMs-I8oKg2p-iRxznzQ", "alias": "soho-chicken-whiskey-cleveland", "name": "Soho Chicken + Whiskey", "image_url": "https://s3-media2.fl.yelpcdn.com/bphoto/Z2u4i6c658stiWays_j7PQ/o.jpg", "is_closed": false, "url": "https://www.yelp.com/biz/soho-chicken-whiskey-cleveland?adjust_creative=VZ7v1vIln-RpGHH5_leTWQ&utm_campaign=yelp_api_v3&utm_medium=api_v3_business_search&utm_source=VZ7v1vIln-RpGHH5_leTWQ", "review_count": 497, "categories": [{"alias": "southern", "title": "Southern"}, {"alias": "bars", "title": "Bars"}, {"alias": "breakfast_brunch", "title": "Breakfast & Brunch"}], "rating": 4.5, "coordinates": {"latitude": 41.4857177734375, "longitude": -81.7040939331055}, "transactions": ["delivery"], "price": "$$", "location": {"address1": "1889 W 25th St", "address2": "", "address3": "", "city": "Cleveland", "zip_code": "44113", "country": "US", "state": "OH", "display_address": ["1889 W 25th St", "Cleveland, OH 44113"]}, "phone": "+12162989090", "display_phone": "(216) 298-9090", "distance": 2971.896093508019}, {"id": "epAifIGqwj5oFp5MV8kgiQ", "alias": "mia-bella-restaurant-cleveland", "name": "Mia Bella Restaurant", "image_url": "https://s3-media2.fl.yelpcdn.com/bphoto/SWc774JvS3IgMC34l0ta_w/o.jpg", "is_closed": false, "url": "https://www.yelp.com/biz/mia-bella-restaurant-cleveland?adjust_creative=VZ7v1vIln-RpGHH5_leTWQ&utm_campaign=yelp_api_v3&utm_medium=api_v3_business_search&utm_source=VZ7v1vIln-RpGHH5_leTWQ", "review_count": 636, "categories": [{"alias": "mediterranean", "title": "Mediterranean"}, {"alias": "italian", "title": "Italian"}], "rating": 4.5, "coordinates": {"latitude": 41.5085151, "longitude": -81.5976709}, "transactions": ["delivery"], "price": "$$", "location": {"address1": "12200 Mayfield Rd", "address2": "", "address3": "", "city": "Cleveland", "zip_code": "44106", "country": "US", "state": "OH", "display_address": ["12200 Mayfield Rd", "Cleveland, OH 44106"]}, "phone": "+12167952355", "display_phone": "(216) 795-2355", "distance": 7333.9832703494}, {"id": "Lx2iogriI7219WkgKgliAQ", "alias": "noble-beast-brewing-cleveland-4", "name": "Noble Beast Brewing", "image_url": "https://s3-media4.fl.yelpcdn.com/bphoto/3EFJ8bSfzAEbgmkwjRgBLQ/o.jpg", "is_closed": false, "url": "https://www.yelp.com/biz/noble-beast-brewing-cleveland-4?adjust_creative=VZ7v1vIln-RpGHH5_leTWQ&utm_campaign=yelp_api_v3&utm_medium=api_v3_business_search&utm_source=VZ7v1vIln-RpGHH5_leTWQ", "review_count": 245, "categories": [{"alias": "breweries", "title": "Breweries"}, {"alias": "newamerican", "title": "American (New)"}, {"alias": "beerbar", "title": "Beer Bar"}], "rating": 4.5, "coordinates": {"latitude": 41.5077833974928, "longitude": -81.6863898932934}, "transactions": [], "price": "$$", "location": {"address1": "1470 Lakeside Ave E", "address2": "", "address3": null, "city": "Cleveland", "zip_code": "44114", "country": "US", "state": "OH", "display_address": ["1470 Lakeside Ave E", "Cleveland, OH 44114"]}, "phone": "+12164178588", "display_phone": "(216) 417-8588", "distance": 3995.8010963591632}, {"id": "tZpxk604kWWHsJKyirraZg", "alias": "lj-shanghai-cleveland", "name": "LJ Shanghai", "image_url": "https://s3-media4.fl.yelpcdn.com/bphoto/HwmhgvROFgbCcfB1ayYJ-Q/o.jpg", "is_closed": false, "url": "https://www.yelp.com/biz/lj-shanghai-cleveland?adjust_creative=VZ7v1vIln-RpGHH5_leTWQ&utm_campaign=yelp_api_v3&utm_medium=api_v3_business_search&utm_source=VZ7v1vIln-RpGHH5_leTWQ", "review_count": 306, "categories": [{"alias": "shanghainese", "title": "Shanghainese"}], "rating": 4.5, "coordinates": {"latitude": 41.5110026135085, "longitude": -81.668807345474}, "transactions": ["delivery"], "price": "$", "location": {"address1": "3142 Superior Ave", "address2": "", "address3": null, "city": "Cleveland", "zip_code": "44114", "country": "US", "state": "OH", "display_address": ["3142 Superior Ave", "Cleveland, OH 44114"]}, "phone": "+12164006936", "display_phone": "(216) 400-6936", "distance": 4189.631215269247}, {"id": "1veVZUawy7IhIc5oDpRRQA", "alias": "slymans-restaurant-cleveland", "name": "Slyman's Restaurant ", "image_url": "https://s3-media1.fl.yelpcdn.com/bphoto/64nhJYhyTpEU-S5Ce04fTg/o.jpg", "is_closed": false, "url": "https://www.yelp.com/biz/slymans-restaurant-cleveland?adjust_creative=VZ7v1vIln-RpGHH5_leTWQ&utm_campaign=yelp_api_v3&utm_medium=api_v3_business_search&utm_source=VZ7v1vIln-RpGHH5_leTWQ", "review_count": 469, "categories": [{"alias": "tradamerican", "title": "American (Traditional)"}, {"alias": "sandwiches", "title": "Sandwiches"}], "rating": 4.5, "coordinates": {"latitude": 41.51286, "longitude": -81.67125}, "transactions": ["delivery"], "price": "$$", "location": {"address1": "3106 Saint Clair Ave NE", "address2": "", "address3": "", "city": "Cleveland", "zip_code": "44114", "country": "US", "state": "OH", "display_address": ["3106 Saint Clair Ave NE", "Cleveland, OH 44114"]}, "phone": "+12166213760", "display_phone": "(216) 621-3760", "distance": 4387.852813612793}, {"id": "Xny0n0s98TpP82sQxfgIMQ", "alias": "sokolowskis-university-inn-cleveland", "name": "Sokolowski's University Inn", "image_url": "https://s3-media1.fl.yelpcdn.com/bphoto/ZJprF7WZe5he6xQkS0qcCg/o.jpg", "is_closed": false, "url": "https://www.yelp.com/biz/sokolowskis-university-inn-cleveland?adjust_creative=VZ7v1vIln-RpGHH5_leTWQ&utm_campaign=yelp_api_v3&utm_medium=api_v3_business_search&utm_source=VZ7v1vIln-RpGHH5_leTWQ", "review_count": 558, "categories": [{"alias": "polish", "title": "Polish"}, {"alias": "tradamerican", "title": "American (Traditional)"}], "rating": 4.5, "coordinates": {"latitude": 41.48475, "longitude": -81.69005}, "transactions": ["pickup", "delivery"], "price": "$$", "location": {"address1": "1201 University Rd", "address2": "", "address3": "", "city": "Cleveland", "zip_code": "44113", "country": "US", "state": "OH", "display_address": ["1201 University Rd", "Cleveland, OH 44113"]}, "phone": "+12167719236", "display_phone": "(216) 771-9236", "distance": 1942.42013816057}, {"id": "K6fYrrTorlpXmqutRcrHzg", "alias": "tremont-taphouse-cleveland", "name": "Tremont Taphouse", "image_url": "https://s3-media2.fl.yelpcdn.com/bphoto/ZEUoobhiN_H-sxu_TiLD2g/o.jpg", "is_closed": false, "url": "https://www.yelp.com/biz/tremont-taphouse-cleveland?adjust_creative=VZ7v1vIln-RpGHH5_leTWQ&utm_campaign=yelp_api_v3&utm_medium=api_v3_business_search&utm_source=VZ7v1vIln-RpGHH5_leTWQ", "review_count": 455, "categories": [{"alias": "gastropubs", "title": "Gastropubs"}, {"alias": "newamerican", "title": "American (New)"}, {"alias": "beerbar", "title": "Beer Bar"}], "rating": 4.0, "coordinates": {"latitude": 41.47719, "longitude": -81.69528}, "transactions": ["pickup", "delivery"], "price": "$$", "location": {"address1": "2572 Scranton Rd", "address2": "", "address3": "", "city": "Cleveland", "zip_code": "44113", "country": "US", "state": "OH", "display_address": ["2572 Scranton Rd", "Cleveland, OH 44113"]}, "phone": "+12162984451", "display_phone": "(216) 298-4451", "distance": 1954.6007213012788}, {"id": "ZRLmQ3oAuspAkk5R6BOfyg", "alias": "fat-cats-cleveland", "name": "Fat Cats", "image_url": "https://s3-media3.fl.yelpcdn.com/bphoto/ma_kEvWBDqXsOq4blsVJ6w/o.jpg", "is_closed": false, "url": "https://www.yelp.com/biz/fat-cats-cleveland?adjust_creative=VZ7v1vIln-RpGHH5_leTWQ&utm_campaign=yelp_api_v3&utm_medium=api_v3_business_search&utm_source=VZ7v1vIln-RpGHH5_leTWQ", "review_count": 265, "categories": [{"alias": "newamerican", "title": "American (New)"}, {"alias": "bars", "title": "Bars"}, {"alias": "asianfusion", "title": "Asian Fusion"}], "rating": 4.0, "coordinates": {"latitude": 41.48381, "longitude": -81.68746}, "transactions": ["delivery"], "price": "$$", "location": {"address1": "2061 W 10th St", "address2": "", "address3": "", "city": "Cleveland", "zip_code": "44113", "country": "US", "state": "OH", "display_address": ["2061 W 10th St", "Cleveland, OH 44113"]}, "phone": "+12165790200", "display_phone": "(216) 579-0200", "distance": 1706.5796525688768}, {"id": "b7sNNAhE-OudLYcUTksfgQ", "alias": "alea-cleveland-2", "name": "ALEA", "image_url": "https://s3-media2.fl.yelpcdn.com/bphoto/9x6j5w27Dm0MMUFb1PAu6g/o.jpg", "is_closed": false, "url": "https://www.yelp.com/biz/alea-cleveland-2?adjust_creative=VZ7v1vIln-RpGHH5_leTWQ&utm_campaign=yelp_api_v3&utm_medium=api_v3_business_search&utm_source=VZ7v1vIln-RpGHH5_leTWQ", "review_count": 16, "categories": [{"alias": "mediterranean", "title": "Mediterranean"}], "rating": 4.5, "coordinates": {"latitude": 41.4893642, "longitude": -81.7109741}, "transactions": [], "location": {"address1": "2912 Church Ave", "address2": null, "address3": "", "city": "Cleveland", "zip_code": "44113", "country": "US", "state": "OH", "display_address": ["2912 Church Ave", "Cleveland, OH 44113"]}, "phone": "+12169128890", "display_phone": "(216) 912-8890", "distance": 3687.396671964724}, {"id": "cX2Nr_XmGYlMaBW35M0sUg", "alias": "mabels-bbq-cleveland", "name": "Mabel's BBQ", "image_url": "https://s3-media2.fl.yelpcdn.com/bphoto/RGxYiAr6oGl4FPVkD7W5GA/o.jpg", "is_closed": false, "url": "https://www.yelp.com/biz/mabels-bbq-cleveland?adjust_creative=VZ7v1vIln-RpGHH5_leTWQ&utm_campaign=yelp_api_v3&utm_medium=api_v3_business_search&utm_source=VZ7v1vIln-RpGHH5_leTWQ", "review_count": 995, "categories": [{"alias": "bbq", "title": "Barbeque"}, {"alias": "bars", "title": "Bars"}], "rating": 4.0, "coordinates": {"latitude": 41.4989512054125, "longitude": -81.6902246153941}, "transactions": ["pickup", "delivery"], "price": "$$", "location": {"address1": "2050 E 4th St", "address2": "", "address3": "", "city": "Cleveland", "zip_code": "44115", "country": "US", "state": "OH", "display_address": ["2050 E 4th St", "Cleveland, OH 44115"]}, "phone": "+12164178823", "display_phone": "(216) 417-8823", "distance": 3205.314158655642}, {"id": "LNsZJP6jZ11e0tDljOLPiQ", "alias": "townhall-cleveland-2", "name": "Townhall", "image_url": "https://s3-media3.fl.yelpcdn.com/bphoto/s4j2eJq68nEcCHqhUDa1vA/o.jpg", "is_closed": false, "url": "https://www.yelp.com/biz/townhall-cleveland-2?adjust_creative=VZ7v1vIln-RpGHH5_leTWQ&utm_campaign=yelp_api_v3&utm_medium=api_v3_business_search&utm_source=VZ7v1vIln-RpGHH5_leTWQ", "review_count": 1419, "categories": [{"alias": "newamerican", "title": "American (New)"}, {"alias": "juicebars", "title": "Juice Bars & Smoothies"}, {"alias": "beerbar", "title": "Beer Bar"}], "rating": 4.0, "coordinates": {"latitude": 41.485492, "longitude": -81.703914}, "transactions": ["delivery", "pickup"], "price": "$$", "location": {"address1": "1909 W 25th St", "address2": "", "address3": "", "city": "Cleveland", "zip_code": "44113", "country": "US", "state": "OH", "display_address": ["1909 W 25th St", "Cleveland, OH 44113"]}, "phone": "+12163449400", "display_phone": "(216) 344-9400", "distance": 2951.385340171334}, {"id": "J4jxIxv_vgmWHCajos_B8w", "alias": "taza-a-lebanese-grill-cleveland", "name": "Taza A Lebanese Grill", "image_url": "https://s3-media4.fl.yelpcdn.com/bphoto/w5TpwRHcrsewRk1xj3btug/o.jpg", "is_closed": false, "url": "https://www.yelp.com/biz/taza-a-lebanese-grill-cleveland?adjust_creative=VZ7v1vIln-RpGHH5_leTWQ&utm_campaign=yelp_api_v3&utm_medium=api_v3_business_search&utm_source=VZ7v1vIln-RpGHH5_leTWQ", "review_count": 361, "categories": [{"alias": "mediterranean", "title": "Mediterranean"}, {"alias": "mideastern", "title": "Middle Eastern"}], "rating": 4.5, "coordinates": {"latitude": 41.498885475667, "longitude": -81.6981884508823}, "transactions": ["delivery"], "price": "$$", "location": {"address1": "1400 W 6th St", "address2": "", "address3": "", "city": "Cleveland", "zip_code": "44113", "country": "US", "state": "OH", "display_address": ["1400 W 6th St", "Cleveland, OH 44113"]}, "phone": "+12162741170", "display_phone": "(216) 274-1170", "distance": 3556.20435784661}, {"id": "MX3TL4-ij22rLFBD1XjKGw", "alias": "fahrenheit-cleveland-2", "name": "Fahrenheit", "image_url": "https://s3-media4.fl.yelpcdn.com/bphoto/dLgn-it21xXkSni31WNx2g/o.jpg", "is_closed": false, "url": "https://www.yelp.com/biz/fahrenheit-cleveland-2?adjust_creative=VZ7v1vIln-RpGHH5_leTWQ&utm_campaign=yelp_api_v3&utm_medium=api_v3_business_search&utm_source=VZ7v1vIln-RpGHH5_leTWQ", "review_count": 309, "categories": [{"alias": "newamerican", "title": "American (New)"}, {"alias": "seafood", "title": "Seafood"}, {"alias": "cocktailbars", "title": "Cocktail Bars"}], "rating": 4.0, "coordinates": {"latitude": 41.47974, "longitude": -81.68458}, "transactions": ["delivery"], "price": "$$$", "location": {"address1": "2417 Professor Ave", "address2": "", "address3": "", "city": "Cleveland", "zip_code": "44113", "country": "US", "state": "OH", "display_address": ["2417 Professor Ave", "Cleveland, OH 44113"]}, "phone": "+12167818858", "display_phone": "(216) 781-8858", "distance": 1231.2158459926795}, {"id": "SzcCJJmreMlWCsNjupdVAA", "alias": "l-albatros-cleveland", "name": "L'Albatros", "image_url": "https://s3-media4.fl.yelpcdn.com/bphoto/QpVBtp_nqMbkW46wgyI31Q/o.jpg", "is_closed": false, "url": "https://www.yelp.com/biz/l-albatros-cleveland?adjust_creative=VZ7v1vIln-RpGHH5_leTWQ&utm_campaign=yelp_api_v3&utm_medium=api_v3_business_search&utm_source=VZ7v1vIln-RpGHH5_leTWQ", "review_count": 699, "categories": [{"alias": "french", "title": "French"}], "rating": 4.5, "coordinates": {"latitude": 41.5117439550152, "longitude": -81.6063953369928}, "transactions": ["delivery"], "price": "$$$", "location": {"address1": "11401 Bellflower Rd", "address2": "", "address3": "", "city": "Cleveland", "zip_code": "44106", "country": "US", "state": "OH", "display_address": ["11401 Bellflower Rd", "Cleveland, OH 44106"]}, "phone": "+12167917880", "display_phone": "(216) 791-7880", "distance": 6953.412053123396}, {"id": "meXjqyhTNLFmknY39y2sMg", "alias": "great-lakes-brewing-company-cleveland-4", "name": "Great Lakes Brewing Company", "image_url": "https://s3-media1.fl.yelpcdn.com/bphoto/RHNLazhqkPK5K0Bx4NgmgA/o.jpg", "is_closed": false, "url": "https://www.yelp.com/biz/great-lakes-brewing-company-cleveland-4?adjust_creative=VZ7v1vIln-RpGHH5_leTWQ&utm_campaign=yelp_api_v3&utm_medium=api_v3_business_search&utm_source=VZ7v1vIln-RpGHH5_leTWQ", "review_count": 1008, "categories": [{"alias": "breweries", "title": "Breweries"}, {"alias": "venues", "title": "Venues & Event Spaces"}, {"alias": "tradamerican", "title": "American (Traditional)"}], "rating": 4.0, "coordinates": {"latitude": 41.4844102, "longitude": -81.7043954}, "transactions": ["pickup", "delivery"], "price": "$$", "location": {"address1": "2516 Market Ave", "address2": "", "address3": "", "city": "Cleveland", "zip_code": "44113", "country": "US", "state": "OH", "display_address": ["2516 Market Ave", "Cleveland, OH 44113"]}, "phone": "+12167714404", "display_phone": "(216) 771-4404", "distance": 2944.089480990514}, {"id": "QMpy9X4gqqqRY2QwG2kxVA", "alias": "astoria-cafe-and-market-cleveland", "name": "Astoria Cafe & Market", "image_url": "https://s3-media2.fl.yelpcdn.com/bphoto/l7Gzrtlt26jpktNC_cRhWw/o.jpg", "is_closed": false, "url": "https://www.yelp.com/biz/astoria-cafe-and-market-cleveland?adjust_creative=VZ7v1vIln-RpGHH5_leTWQ&utm_campaign=yelp_api_v3&utm_medium=api_v3_business_search&utm_source=VZ7v1vIln-RpGHH5_leTWQ", "review_count": 202, "categories": [{"alias": "mediterranean", "title": "Mediterranean"}, {"alias": "tapasmallplates", "title": "Tapas/Small Plates"}, {"alias": "importedfood", "title": "Imported Food"}], "rating": 4.5, "coordinates": {"latitude": 41.4852993343325, "longitude": -81.7244920134544}, "transactions": ["delivery"], "price": "$$", "location": {"address1": "5417 Detroit Ave", "address2": "", "address3": null, "city": "Cleveland", "zip_code": "44102", "country": "US", "state": "OH", "display_address": ["5417 Detroit Ave", "Cleveland, OH 44102"]}, "phone": "+12162660834", "display_phone": "(216) 266-0834", "distance": 4539.159917003367}, {"id": "F2pfjAZ_3dMTGCKv6c5wOw", "alias": "momocho-cleveland-2", "name": "Momocho", "image_url": "https://s3-media3.fl.yelpcdn.com/bphoto/Ua7BCCoAX6qwZkCyEY7clA/o.jpg", "is_closed": false, "url": "https://www.yelp.com/biz/momocho-cleveland-2?adjust_creative=VZ7v1vIln-RpGHH5_leTWQ&utm_campaign=yelp_api_v3&utm_medium=api_v3_business_search&utm_source=VZ7v1vIln-RpGHH5_leTWQ", "review_count": 781, "categories": [{"alias": "mexican", "title": "Mexican"}], "rating": 4.0, "coordinates": {"latitude": 41.4840151, "longitude": -81.7098131}, "transactions": ["delivery"], "price": "$$", "location": {"address1": "1835 Fulton Rd", "address2": null, "address3": "", "city": "Cleveland", "zip_code": "44113", "country": "US", "state": "OH", "display_address": ["1835 Fulton Rd", "Cleveland, OH 44113"]}, "phone": "+12166942122", "display_phone": "(216) 694-2122", "distance": 3334.932183995511}, {"id": "Ur4eYOFq4qVLHkZJNmcqfQ", "alias": "prosperity-social-club-cleveland", "name": "Prosperity Social Club", "image_url": "https://s3-media4.fl.yelpcdn.com/bphoto/p7B1y9Tw6o28r-7eijpiWw/o.jpg", "is_closed": false, "url": "https://www.yelp.com/biz/prosperity-social-club-cleveland?adjust_creative=VZ7v1vIln-RpGHH5_leTWQ&utm_campaign=yelp_api_v3&utm_medium=api_v3_business_search&utm_source=VZ7v1vIln-RpGHH5_leTWQ", "review_count": 233, "categories": [{"alias": "pubs", "title": "Pubs"}, {"alias": "breakfast_brunch", "title": "Breakfast & Brunch"}], "rating": 4.0, "coordinates": {"latitude": 41.4770698547363, "longitude": -81.6897888183594}, "transactions": ["delivery"], "price": "$$", "location": {"address1": "1109 Starkweather Ave", "address2": "", "address3": "", "city": "Cleveland", "zip_code": "44113", "country": "US", "state": "OH", "display_address": ["1109 Starkweather Ave", "Cleveland, OH 44113"]}, "phone": "+12169371938", "display_phone": "(216) 937-1938", "distance": 1507.415673311453}, {"id": "wOKcWLyN1DhSEl3Y1eG5nQ", "alias": "flying-fig-cleveland", "name": "Flying Fig", "image_url": "https://s3-media1.fl.yelpcdn.com/bphoto/98JU8rZtkSHFkCNVoZcZmA/o.jpg", "is_closed": false, "url": "https://www.yelp.com/biz/flying-fig-cleveland?adjust_creative=VZ7v1vIln-RpGHH5_leTWQ&utm_campaign=yelp_api_v3&utm_medium=api_v3_business_search&utm_source=VZ7v1vIln-RpGHH5_leTWQ", "review_count": 480, "categories": [{"alias": "newamerican", "title": "American (New)"}, {"alias": "breakfast_brunch", "title": "Breakfast & Brunch"}, {"alias": "bars", "title": "Bars"}], "rating": 4.0, "coordinates": {"latitude": 41.484180507057, "longitude": -81.704313905858}, "transactions": ["delivery"], "price": "$$", "location": {"address1": "2523 Market Ave", "address2": "", "address3": "", "city": "Cleveland", "zip_code": "44113", "country": "US", "state": "OH", "display_address": ["2523 Market Ave", "Cleveland, OH 44113"]}, "phone": "+12162414243", "display_phone": "(216) 241-4243", "distance": 2918.3497649316128}, {"id": "xBgQ4T6mhS5VsmK9u6mBcg", "alias": "fire-cleveland-3", "name": "Fire", "image_url": "https://s3-media3.fl.yelpcdn.com/bphoto/-iLnzlvDQc15KqWoip3lPA/o.jpg", "is_closed": false, "url": "https://www.yelp.com/biz/fire-cleveland-3?adjust_creative=VZ7v1vIln-RpGHH5_leTWQ&utm_campaign=yelp_api_v3&utm_medium=api_v3_business_search&utm_source=VZ7v1vIln-RpGHH5_leTWQ", "review_count": 314, "categories": [{"alias": "newamerican", "title": "American (New)"}, {"alias": "seafood", "title": "Seafood"}], "rating": 4.5, "coordinates": {"latitude": 41.483255, "longitude": -81.589659}, "transactions": ["delivery"], "price": "$$$", "location": {"address1": "13220 Shaker Sq", "address2": "", "address3": "", "city": "Cleveland", "zip_code": "44120", "country": "US", "state": "OH", "display_address": ["13220 Shaker Sq", "Cleveland, OH 44120"]}, "phone": "+12169213473", "display_phone": "(216) 921-3473", "distance": 6976.190192317163}, {"id": "GDpd9KZdUgnjcoCWTTphqw", "alias": "szechuan-gourmet-cleveland", "name": "Szechuan Gourmet", "image_url": "https://s3-media2.fl.yelpcdn.com/bphoto/Gyy-LOPGOskb3xQ5tvuTnw/o.jpg", "is_closed": false, "url": "https://www.yelp.com/biz/szechuan-gourmet-cleveland?adjust_creative=VZ7v1vIln-RpGHH5_leTWQ&utm_campaign=yelp_api_v3&utm_medium=api_v3_business_search&utm_source=VZ7v1vIln-RpGHH5_leTWQ", "review_count": 219, "categories": [{"alias": "szechuan", "title": "Szechuan"}], "rating": 4.5, "coordinates": {"latitude": 41.508505, "longitude": -81.663319}, "transactions": ["delivery"], "price": "$$", "location": {"address1": "1735 E 36th St", "address2": "", "address3": "", "city": "Cleveland", "zip_code": "44114", "country": "US", "state": "OH", "display_address": ["1735 E 36th St", "Cleveland, OH 44114"]}, "phone": "+12168819688", "display_phone": "(216) 881-9688", "distance": 3973.489587322134}, {"id": "Nkb9_PKgnVYZe8W1y_fBRg", "alias": "dante-next-door-cleveland", "name": "Dante Next Door", "image_url": "https://s3-media4.fl.yelpcdn.com/bphoto/BfZB9PqCwRiyZhfo3SJ1Bw/o.jpg", "is_closed": false, "url": "https://www.yelp.com/biz/dante-next-door-cleveland?adjust_creative=VZ7v1vIln-RpGHH5_leTWQ&utm_campaign=yelp_api_v3&utm_medium=api_v3_business_search&utm_source=VZ7v1vIln-RpGHH5_leTWQ", "review_count": 89, "categories": [{"alias": "italian", "title": "Italian"}, {"alias": "pizza", "title": "Pizza"}], "rating": 4.0, "coordinates": {"latitude": 41.4815368652344, "longitude": -81.6861724853516}, "transactions": ["delivery"], "price": "$$", "location": {"address1": "2247 Professor Ave", "address2": "", "address3": "", "city": "Cleveland", "zip_code": "44113", "country": "US", "state": "OH", "display_address": ["2247 Professor Ave", "Cleveland, OH 44113"]}, "phone": "+12162741201", "display_phone": "(216) 274-1201", "distance": 1480.5270100080695}, {"id": "Qqh2cFO1bk5TQ8mWIEjbCw", "alias": "herb-n-twine-cleveland", "name": "Herb 'n Twine", "image_url": "https://s3-media2.fl.yelpcdn.com/bphoto/wNEPsVu7d7EDwY2s7yxcLw/o.jpg", "is_closed": false, "url": "https://www.yelp.com/biz/herb-n-twine-cleveland?adjust_creative=VZ7v1vIln-RpGHH5_leTWQ&utm_campaign=yelp_api_v3&utm_medium=api_v3_business_search&utm_source=VZ7v1vIln-RpGHH5_leTWQ", "review_count": 178, "categories": [{"alias": "sandwiches", "title": "Sandwiches"}], "rating": 4.5, "coordinates": {"latitude": 41.4792764410029, "longitude": -81.7158751516917}, "transactions": ["delivery"], "price": "$$", "location": {"address1": "4309 Lorain Ave", "address2": "", "address3": "", "city": "Cleveland", "zip_code": "44113", "country": "US", "state": "OH", "display_address": ["4309 Lorain Ave", "Cleveland, OH 44113"]}, "phone": "+12164659600", "display_phone": "(216) 465-9600", "distance": 3683.046934793846}, {"id": "Gs_jpJB5f3a1jCQjV7QHQA", "alias": "barroco-cleveland", "name": "Barroco", "image_url": "https://s3-media4.fl.yelpcdn.com/bphoto/cBR5OW6hvd2o0fIvVG9yTg/o.jpg", "is_closed": false, "url": "https://www.yelp.com/biz/barroco-cleveland?adjust_creative=VZ7v1vIln-RpGHH5_leTWQ&utm_campaign=yelp_api_v3&utm_medium=api_v3_business_search&utm_source=VZ7v1vIln-RpGHH5_leTWQ", "review_count": 185, "categories": [{"alias": "latin", "title": "Latin American"}, {"alias": "bars", "title": "Bars"}, {"alias": "gluten_free", "title": "Gluten-Free"}], "rating": 4.5, "coordinates": {"latitude": 41.4874, "longitude": -81.59369}, "transactions": ["delivery"], "price": "$$", "location": {"address1": "12718 Larchmere Blvd", "address2": "", "address3": null, "city": "Cleveland", "zip_code": "44120", "country": "US", "state": "OH", "display_address": ["12718 Larchmere Blvd", "Cleveland, OH 44120"]}, "phone": "+12169389301", "display_phone": "(216) 938-9301", "distance": 6734.897114237191}, {"id": "_5PJ4GHIXNdUdXtohylKGQ", "alias": "luckys-cafe-cleveland-3", "name": "Lucky's Cafe", "image_url": "https://s3-media2.fl.yelpcdn.com/bphoto/ca_NaRj7LYdKkqER8Ala4A/o.jpg", "is_closed": false, "url": "https://www.yelp.com/biz/luckys-cafe-cleveland-3?adjust_creative=VZ7v1vIln-RpGHH5_leTWQ&utm_campaign=yelp_api_v3&utm_medium=api_v3_business_search&utm_source=VZ7v1vIln-RpGHH5_leTWQ", "review_count": 906, "categories": [{"alias": "coffee", "title": "Coffee & Tea"}, {"alias": "breakfast_brunch", "title": "Breakfast & Brunch"}, {"alias": "desserts", "title": "Desserts"}], "rating": 4.0, "coordinates": {"latitude": 41.47736, "longitude": -81.68308}, "transactions": ["pickup", "delivery"], "price": "$$", "location": {"address1": "777 Starkweather Ave", "address2": "", "address3": "", "city": "Cleveland", "zip_code": "44113", "country": "US", "state": "OH", "display_address": ["777 Starkweather Ave", "Cleveland, OH 44113"]}, "phone": "+12166227773", "display_phone": "(216) 622-7773", "distance": 992.8943402581386}, {"id": "YVkcZQEfH0qQRtN86CoSDQ", "alias": "batuqui-cleveland", "name": "Batuqui", "image_url": "https://s3-media2.fl.yelpcdn.com/bphoto/Dnyi8uEGjb4YakD1PPe9Lg/o.jpg", "is_closed": false, "url": "https://www.yelp.com/biz/batuqui-cleveland?adjust_creative=VZ7v1vIln-RpGHH5_leTWQ&utm_campaign=yelp_api_v3&utm_medium=api_v3_business_search&utm_source=VZ7v1vIln-RpGHH5_leTWQ", "review_count": 152, "categories": [{"alias": "brazilian", "title": "Brazilian"}, {"alias": "salad", "title": "Salad"}], "rating": 4.5, "coordinates": {"latitude": 41.4874525269246, "longitude": -81.5941883092739}, "transactions": ["delivery"], "price": "$$$", "location": {"address1": "12706 Larchmere Blvd", "address2": "", "address3": "", "city": "Cleveland", "zip_code": "44120", "country": "US", "state": "OH", "display_address": ["12706 Larchmere Blvd", "Cleveland, OH 44120"]}, "phone": "+12168010227", "display_phone": "(216) 801-0227", "distance": 6696.73173876018}, {"id": "wxMDlB4MJ65CHQVxOYm5_w", "alias": "landmark-cleveland", "name": "Landmark Smokehouse", "image_url": "https://s3-media2.fl.yelpcdn.com/bphoto/1-mIlPCDVhVtyW43H9m_-g/o.jpg", "is_closed": false, "url": "https://www.yelp.com/biz/landmark-cleveland?adjust_creative=VZ7v1vIln-RpGHH5_leTWQ&utm_campaign=yelp_api_v3&utm_medium=api_v3_business_search&utm_source=VZ7v1vIln-RpGHH5_leTWQ", "review_count": 121, "categories": [{"alias": "breakfast_brunch", "title": "Breakfast & Brunch"}, {"alias": "diners", "title": "Diners"}, {"alias": "salad", "title": "Salad"}], "rating": 4.5, "coordinates": {"latitude": 41.4872978, "longitude": -81.7683908}, "transactions": ["pickup", "delivery"], "price": "$$", "location": {"address1": "11637 Clifton Blvd", "address2": "", "address3": null, "city": "Cleveland", "zip_code": "44102", "country": "US", "state": "OH", "display_address": ["11637 Clifton Blvd", "Cleveland, OH 44102"]}, "phone": "+12162304040", "display_phone": "(216) 230-4040", "distance": 8154.721891487086}, {"id": "t2O4Qx74U_IfBzDHJzvUCA", "alias": "urban-farmer-cleveland-2", "name": "Urban Farmer", "image_url": "https://s3-media2.fl.yelpcdn.com/bphoto/l0n5hWVtd9kcjE2FDJ0bmA/o.jpg", "is_closed": false, "url": "https://www.yelp.com/biz/urban-farmer-cleveland-2?adjust_creative=VZ7v1vIln-RpGHH5_leTWQ&utm_campaign=yelp_api_v3&utm_medium=api_v3_business_search&utm_source=VZ7v1vIln-RpGHH5_leTWQ", "review_count": 587, "categories": [{"alias": "tradamerican", "title": "American (Traditional)"}, {"alias": "steak", "title": "Steakhouses"}, {"alias": "breakfast_brunch", "title": "Breakfast & Brunch"}], "rating": 3.5, "coordinates": {"latitude": 41.5034943, "longitude": -81.691981}, "transactions": ["pickup", "delivery"], "price": "$$", "location": {"address1": "1325 E 6th St", "address2": null, "address3": "", "city": "Cleveland", "zip_code": "44114", "country": "US", "state": "OH", "display_address": ["1325 E 6th St", "Cleveland, OH 44114"]}, "phone": "+12167717707", "display_phone": "(216) 771-7707", "distance": 3725.8714029619105}, {"id": "cUwNW5NEua_yMcAx-X2sMg", "alias": "grumpys-cafe-cleveland", "name": "Grumpy's Cafe", "image_url": "https://s3-media2.fl.yelpcdn.com/bphoto/RurJ6-UmEMh6YUDBthTZGA/o.jpg", "is_closed": false, "url": "https://www.yelp.com/biz/grumpys-cafe-cleveland?adjust_creative=VZ7v1vIln-RpGHH5_leTWQ&utm_campaign=yelp_api_v3&utm_medium=api_v3_business_search&utm_source=VZ7v1vIln-RpGHH5_leTWQ", "review_count": 442, "categories": [{"alias": "breakfast_brunch", "title": "Breakfast & Brunch"}, {"alias": "salad", "title": "Salad"}], "rating": 4.0, "coordinates": {"latitude": 41.476519, "longitude": -81.690993}, "transactions": ["delivery"], "price": "$$", "location": {"address1": "2621 W 14th St", "address2": "", "address3": "", "city": "Cleveland", "zip_code": "44113", "country": "US", "state": "OH", "display_address": ["2621 W 14th St", "Cleveland, OH 44113"]}, "phone": "+12162415025", "display_phone": "(216) 241-5025", "distance": 1589.909540735671}, {"id": "9JUynLfWPwe1X9gsJS6FTA", "alias": "cleveland-chop-cleveland", "name": "Cleveland Chop", "image_url": "https://s3-media4.fl.yelpcdn.com/bphoto/BJCxNyh_C3LF4_OqW2A6aw/o.jpg", "is_closed": false, "url": "https://www.yelp.com/biz/cleveland-chop-cleveland?adjust_creative=VZ7v1vIln-RpGHH5_leTWQ&utm_campaign=yelp_api_v3&utm_medium=api_v3_business_search&utm_source=VZ7v1vIln-RpGHH5_leTWQ", "review_count": 321, "categories": [{"alias": "steak", "title": "Steakhouses"}, {"alias": "seafood", "title": "Seafood"}, {"alias": "newamerican", "title": "American (New)"}], "rating": 4.0, "coordinates": {"latitude": 41.49951, "longitude": -81.69936}, "transactions": ["delivery"], "price": "$$", "location": {"address1": "824 W St Clair Ave", "address2": "", "address3": "", "city": "Cleveland", "zip_code": "44113", "country": "US", "state": "OH", "display_address": ["824 W St Clair Ave", "Cleveland, OH 44113"]}, "phone": "+12166962467", "display_phone": "(216) 696-2467", "distance": 3660.980882180836}, {"id": "HiJ2GEMZGKI8vwalAp2h-Q", "alias": "sichuan-hot-pot-cuisine-cleveland-2", "name": "Sichuan Hot Pot Cuisine", "image_url": "https://s3-media1.fl.yelpcdn.com/bphoto/8OA17DzpCLDnyunKtl_zeg/o.jpg", "is_closed": false, "url": "https://www.yelp.com/biz/sichuan-hot-pot-cuisine-cleveland-2?adjust_creative=VZ7v1vIln-RpGHH5_leTWQ&utm_campaign=yelp_api_v3&utm_medium=api_v3_business_search&utm_source=VZ7v1vIln-RpGHH5_leTWQ", "review_count": 31, "categories": [{"alias": "szechuan", "title": "Szechuan"}, {"alias": "hotpot", "title": "Hot Pot"}], "rating": 4.5, "coordinates": {"latitude": 41.5086, "longitude": -81.67808}, "transactions": ["delivery"], "location": {"address1": "2162 Rockwell Ave", "address2": null, "address3": "", "city": "Cleveland", "zip_code": "44114", "country": "US", "state": "OH", "display_address": ["2162 Rockwell Ave", "Cleveland, OH 44114"]}, "phone": "+12165231188", "display_phone": "(216) 523-1188", "distance": 3945.460436689212}, {"id": "9p-oDNOVSG38rRN-15MviQ", "alias": "korea-house-cleveland", "name": "Korea House", "image_url": "https://s3-media2.fl.yelpcdn.com/bphoto/6RxzJMzVoqibCw-VrPDFXQ/o.jpg", "is_closed": false, "url": "https://www.yelp.com/biz/korea-house-cleveland?adjust_creative=VZ7v1vIln-RpGHH5_leTWQ&utm_campaign=yelp_api_v3&utm_medium=api_v3_business_search&utm_source=VZ7v1vIln-RpGHH5_leTWQ", "review_count": 137, "categories": [{"alias": "korean", "title": "Korean"}], "rating": 4.0, "coordinates": {"latitude": 41.51243, "longitude": -81.66493}, "transactions": ["pickup", "delivery"], "price": "$$", "location": {"address1": "3700 Superior Ave E", "address2": "", "address3": "", "city": "Cleveland", "zip_code": "44114", "country": "US", "state": "OH", "display_address": ["3700 Superior Ave E", "Cleveland, OH 44114"]}, "phone": "+12164310462", "display_phone": "(216) 431-0462", "distance": 4378.129895381054}, {"id": "AbPQf-X7awuPFDULiJ43bg", "alias": "superior-pho-cleveland", "name": "Superior Pho", "image_url": "https://s3-media3.fl.yelpcdn.com/bphoto/FJFfJ9FUTDC3kWzTho38Cg/o.jpg", "is_closed": false, "url": "https://www.yelp.com/biz/superior-pho-cleveland?adjust_creative=VZ7v1vIln-RpGHH5_leTWQ&utm_campaign=yelp_api_v3&utm_medium=api_v3_business_search&utm_source=VZ7v1vIln-RpGHH5_leTWQ", "review_count": 640, "categories": [{"alias": "vietnamese", "title": "Vietnamese"}, {"alias": "soup", "title": "Soup"}, {"alias": "sandwiches", "title": "Sandwiches"}], "rating": 4.0, "coordinates": {"latitude": 41.51056, "longitude": -81.6698}, "transactions": ["delivery", "pickup"], "price": "$", "location": {"address1": "3030 Superior Ave E", "address2": "Ste E", "address3": "", "city": "Cleveland", "zip_code": "44114", "country": "US", "state": "OH", "display_address": ["3030 Superior Ave E", "Ste E", "Cleveland, OH 44114"]}, "phone": "+12167817462", "display_phone": "(216) 781-7462", "distance": 4127.849574573042}, {"id": "jA3xcba82t8x06H8NzG4VQ", "alias": "the-black-pig-cleveland-2", "name": "The Black Pig", "image_url": "https://s3-media4.fl.yelpcdn.com/bphoto/Ylx484WtXqx4oSpGKwCRwQ/o.jpg", "is_closed": false, "url": "https://www.yelp.com/biz/the-black-pig-cleveland-2?adjust_creative=VZ7v1vIln-RpGHH5_leTWQ&utm_campaign=yelp_api_v3&utm_medium=api_v3_business_search&utm_source=VZ7v1vIln-RpGHH5_leTWQ", "review_count": 185, "categories": [{"alias": "newamerican", "title": "American (New)"}, {"alias": "breakfast_brunch", "title": "Breakfast & Brunch"}, {"alias": "cocktailbars", "title": "Cocktail Bars"}], "rating": 4.0, "coordinates": {"latitude": 41.4847984313965, "longitude": -81.706657409668}, "transactions": [], "price": "$$", "location": {"address1": "2801 Bridge Ave", "address2": "", "address3": "", "city": "Cleveland", "zip_code": "44113", "country": "US", "state": "OH", "display_address": ["2801 Bridge Ave", "Cleveland, OH 44113"]}, "phone": "+12168627551", "display_phone": "(216) 862-7551", "distance": 3125.099895407353}, {"id": "M4RwZL5bTBTwwbVcoaDbtw", "alias": "rowley-inn-cleveland", "name": "Rowley Inn", "image_url": "https://s3-media2.fl.yelpcdn.com/bphoto/y-d01iTOqCeIvfvl_x1orQ/o.jpg", "is_closed": false, "url": "https://www.yelp.com/biz/rowley-inn-cleveland?adjust_creative=VZ7v1vIln-RpGHH5_leTWQ&utm_campaign=yelp_api_v3&utm_medium=api_v3_business_search&utm_source=VZ7v1vIln-RpGHH5_leTWQ", "review_count": 185, "categories": [{"alias": "pubs", "title": "Pubs"}, {"alias": "gastropubs", "title": "Gastropubs"}, {"alias": "breakfast_brunch", "title": "Breakfast & Brunch"}], "rating": 4.5, "coordinates": {"latitude": 41.4689993, "longitude": -81.6878849}, "transactions": ["delivery"], "price": "$$", "location": {"address1": "1104 Rowley Ave", "address2": "", "address3": "", "city": "Cleveland", "zip_code": "44109", "country": "US", "state": "OH", "display_address": ["1104 Rowley Ave", "Cleveland, OH 44109"]}, "phone": "+12167955345", "display_phone": "(216) 795-5345", "distance": 1383.4300810329428}, {"id": "J1RDyyPxhioqm8c_fi4P4Q", "alias": "lola-cleveland", "name": "Lola", "image_url": "https://s3-media3.fl.yelpcdn.com/bphoto/xP1QFeC-Llz3kofnVAurCw/o.jpg", "is_closed": false, "url": "https://www.yelp.com/biz/lola-cleveland?adjust_creative=VZ7v1vIln-RpGHH5_leTWQ&utm_campaign=yelp_api_v3&utm_medium=api_v3_business_search&utm_source=VZ7v1vIln-RpGHH5_leTWQ", "review_count": 1102, "categories": [{"alias": "wine_bars", "title": "Wine Bars"}, {"alias": "newamerican", "title": "American (New)"}], "rating": 4.0, "coordinates": {"latitude": 41.49883, "longitude": -81.69035}, "transactions": ["delivery"], "price": "$$$", "location": {"address1": "2058 E 4th St", "address2": "", "address3": "", "city": "Cleveland", "zip_code": "44115", "country": "US", "state": "OH", "display_address": ["2058 E 4th St", "Cleveland, OH 44115"]}, "phone": "+12166215652", "display_phone": "(216) 621-5652", "distance": 3191.079270387402}, {"id": "kXIJwryYY2xDHNnI7jz-WQ", "alias": "pho-thang-cafe-cleveland-3", "name": "Pho Thang Cafe", "image_url": "https://s3-media3.fl.yelpcdn.com/bphoto/0gimCGByJ0aAfVVG_hh4og/o.jpg", "is_closed": false, "url": "https://www.yelp.com/biz/pho-thang-cafe-cleveland-3?adjust_creative=VZ7v1vIln-RpGHH5_leTWQ&utm_campaign=yelp_api_v3&utm_medium=api_v3_business_search&utm_source=VZ7v1vIln-RpGHH5_leTWQ", "review_count": 296, "categories": [{"alias": "vietnamese", "title": "Vietnamese"}], "rating": 4.0, "coordinates": {"latitude": 41.5024433, "longitude": -81.6893526}, "transactions": ["delivery"], "price": "$$", "location": {"address1": "815 Superior Ave E", "address2": "", "address3": "", "city": "Cleveland", "zip_code": "44114", "country": "US", "state": "OH", "display_address": ["815 Superior Ave E", "Cleveland, OH 44114"]}, "phone": "+12162917115", "display_phone": "(216) 291-7115", "distance": 3524.018119959777}, {"id": "yTv4ptghx8xrErx6dcW3HA", "alias": "toast-cleveland", "name": "Toast", "image_url": "https://s3-media2.fl.yelpcdn.com/bphoto/BRfrGTvHGTAR1Yt-7AqhNg/o.jpg", "is_closed": false, "url": "https://www.yelp.com/biz/toast-cleveland?adjust_creative=VZ7v1vIln-RpGHH5_leTWQ&utm_campaign=yelp_api_v3&utm_medium=api_v3_business_search&utm_source=VZ7v1vIln-RpGHH5_leTWQ", "review_count": 156, "categories": [{"alias": "wine_bars", "title": "Wine Bars"}, {"alias": "breakfast_brunch", "title": "Breakfast & Brunch"}, {"alias": "tradamerican", "title": "American (Traditional)"}], "rating": 4.0, "coordinates": {"latitude": 41.4849891662598, "longitude": -81.7299499511719}, "transactions": ["delivery"], "price": "$$", "location": {"address1": "1365 W 65th St", "address2": null, "address3": "", "city": "Cleveland", "zip_code": "44102", "country": "US", "state": "OH", "display_address": ["1365 W 65th St", "Cleveland, OH 44102"]}, "phone": "+12168628974", "display_phone": "(216) 862-8974", "distance": 4970.963488222837}, {"id": "IJlEACzNH-i_6Ovppj1KSQ", "alias": "the-plum-cleveland", "name": "The Plum", "image_url": "https://s3-media3.fl.yelpcdn.com/bphoto/yFNi2avTuYZC5I27-3mAPQ/o.jpg", "is_closed": false, "url": "https://www.yelp.com/biz/the-plum-cleveland?adjust_creative=VZ7v1vIln-RpGHH5_leTWQ&utm_campaign=yelp_api_v3&utm_medium=api_v3_business_search&utm_source=VZ7v1vIln-RpGHH5_leTWQ", "review_count": 126, "categories": [{"alias": "bars", "title": "Bars"}, {"alias": "cafes", "title": "Cafes"}, {"alias": "tradamerican", "title": "American (Traditional)"}], "rating": 4.0, "coordinates": {"latitude": 41.4799099274481, "longitude": -81.7142251234609}, "transactions": ["delivery"], "price": "$$", "location": {"address1": "4133 Lorain Ave", "address2": "", "address3": "", "city": "Cleveland", "zip_code": "44113", "country": "US", "state": "OH", "display_address": ["4133 Lorain Ave", "Cleveland, OH 44113"]}, "phone": "+12169388711", "display_phone": "(216) 938-8711", "distance": 3561.4215901422444}, {"id": "HNs2Nf-trqFTDtho4vhfmA", "alias": "the-south-side-cleveland-2", "name": "The South Side", "image_url": "https://s3-media3.fl.yelpcdn.com/bphoto/ZizLAeTtZNl4U6Tpy1PiOw/o.jpg", "is_closed": false, "url": "https://www.yelp.com/biz/the-south-side-cleveland-2?adjust_creative=VZ7v1vIln-RpGHH5_leTWQ&utm_campaign=yelp_api_v3&utm_medium=api_v3_business_search&utm_source=VZ7v1vIln-RpGHH5_leTWQ", "review_count": 366, "categories": [{"alias": "lounges", "title": "Lounges"}, {"alias": "newamerican", "title": "American (New)"}], "rating": 3.5, "coordinates": {"latitude": 41.48202, "longitude": -81.68897}, "transactions": ["pickup", "delivery"], "price": "$$", "location": {"address1": "2207 W 11th St", "address2": "", "address3": "", "city": "Cleveland", "zip_code": "44113", "country": "US", "state": "OH", "display_address": ["2207 W 11th St", "Cleveland, OH 44113"]}, "phone": "+12169372288", "display_phone": "(216) 937-2288", "distance": 1685.4541450346035}, {"id": "2tfMXjOotr1r168mVttUmQ", "alias": "local-west-cleveland", "name": "Local West", "image_url": "https://s3-media3.fl.yelpcdn.com/bphoto/4hlhcuJ36r3Svix2IFHRBg/o.jpg", "is_closed": false, "url": "https://www.yelp.com/biz/local-west-cleveland?adjust_creative=VZ7v1vIln-RpGHH5_leTWQ&utm_campaign=yelp_api_v3&utm_medium=api_v3_business_search&utm_source=VZ7v1vIln-RpGHH5_leTWQ", "review_count": 158, "categories": [{"alias": "gastropubs", "title": "Gastropubs"}, {"alias": "burgers", "title": "Burgers"}, {"alias": "tradamerican", "title": "American (Traditional)"}], "rating": 4.5, "coordinates": {"latitude": 41.4828415, "longitude": -81.7355576}, "transactions": ["delivery"], "price": "$$", "location": {"address1": "7400 Detroit Ave", "address2": "", "address3": "", "city": "Cleveland", "zip_code": "44102", "country": "US", "state": "OH", "display_address": ["7400 Detroit Ave", "Cleveland, OH 44102"]}, "phone": "+12164177001", "display_phone": "(216) 417-7001", "distance": 5368.098297004771}, {"id": "4YFV-Z4Yy_MCGS54kBgWPg", "alias": "rising-grill-korean-bbq-cleveland", "name": "Rising Grill Korean BBQ", "image_url": "https://s3-media4.fl.yelpcdn.com/bphoto/05sD91qxMLtU3VVzijrtRw/o.jpg", "is_closed": false, "url": "https://www.yelp.com/biz/rising-grill-korean-bbq-cleveland?adjust_creative=VZ7v1vIln-RpGHH5_leTWQ&utm_campaign=yelp_api_v3&utm_medium=api_v3_business_search&utm_source=VZ7v1vIln-RpGHH5_leTWQ", "review_count": 100, "categories": [{"alias": "korean", "title": "Korean"}, {"alias": "bbq", "title": "Barbeque"}], "rating": 4.0, "coordinates": {"latitude": 41.50983, "longitude": -81.66251}, "transactions": ["delivery"], "price": "$$", "location": {"address1": "3709 Payne Ave", "address2": "", "address3": null, "city": "Cleveland", "zip_code": "44114", "country": "US", "state": "OH", "display_address": ["3709 Payne Ave", "Cleveland, OH 44114"]}, "phone": "+12164653561", "display_phone": "(216) 465-3561", "distance": 4137.331563404393}, {"id": "Ih0f0UyhFufm3C7kR72DSQ", "alias": "dante-cleveland-2", "name": "Dante", "image_url": "https://s3-media4.fl.yelpcdn.com/bphoto/CnH0Fzz4Hspi0FzvIB03Sg/o.jpg", "is_closed": false, "url": "https://www.yelp.com/biz/dante-cleveland-2?adjust_creative=VZ7v1vIln-RpGHH5_leTWQ&utm_campaign=yelp_api_v3&utm_medium=api_v3_business_search&utm_source=VZ7v1vIln-RpGHH5_leTWQ", "review_count": 332, "categories": [{"alias": "newamerican", "title": "American (New)"}, {"alias": "italian", "title": "Italian"}, {"alias": "bars", "title": "Bars"}], "rating": 4.0, "coordinates": {"latitude": 41.48156, "longitude": -81.68643}, "transactions": [], "price": "$$$", "location": {"address1": "2247 Professor Ave", "address2": null, "address3": null, "city": "Cleveland", "zip_code": "44113", "country": "US", "state": "OH", "display_address": ["2247 Professor Ave", "Cleveland, OH 44113"]}, "phone": "+12162741200", "display_phone": "(216) 274-1200", "distance": 1479.9690414825623}, {"id": "CJvN2k3gjR7JspTx21icTQ", "alias": "crust-cleveland", "name": "Crust", "image_url": "https://s3-media4.fl.yelpcdn.com/bphoto/kDgmakmqvIiT0G2ta7Vp9A/o.jpg", "is_closed": false, "url": "https://www.yelp.com/biz/crust-cleveland?adjust_creative=VZ7v1vIln-RpGHH5_leTWQ&utm_campaign=yelp_api_v3&utm_medium=api_v3_business_search&utm_source=VZ7v1vIln-RpGHH5_leTWQ", "review_count": 235, "categories": [{"alias": "pizza", "title": "Pizza"}, {"alias": "italian", "title": "Italian"}], "rating": 4.5, "coordinates": {"latitude": 41.4812534171164, "longitude": -81.6865449633101}, "transactions": ["delivery"], "price": "$$", "location": {"address1": "2258 Professor Ave", "address2": "", "address3": "", "city": "Cleveland", "zip_code": "44113", "country": "US", "state": "OH", "display_address": ["2258 Professor Ave", "Cleveland, OH 44113"]}, "phone": "+12165830257", "display_phone": "(216) 583-0257", "distance": 1467.9353012871309}, {"id": "BsvCTCVG7lrzXZ68VyyIcg", "alias": "lago-east-bank-cleveland-4", "name": "Lago East Bank", "image_url": "https://s3-media1.fl.yelpcdn.com/bphoto/xOFCKYJeD5-Lotz0sK7AEg/o.jpg", "is_closed": false, "url": "https://www.yelp.com/biz/lago-east-bank-cleveland-4?adjust_creative=VZ7v1vIln-RpGHH5_leTWQ&utm_campaign=yelp_api_v3&utm_medium=api_v3_business_search&utm_source=VZ7v1vIln-RpGHH5_leTWQ", "review_count": 234, "categories": [{"alias": "italian", "title": "Italian"}, {"alias": "seafood", "title": "Seafood"}], "rating": 4.0, "coordinates": {"latitude": 41.5002522792643, "longitude": -81.704224561507}, "transactions": ["delivery"], "price": "$$", "location": {"address1": "1091 W 10th St", "address2": "", "address3": "", "city": "Cleveland", "zip_code": "44113", "country": "US", "state": "OH", "display_address": ["1091 W 10th St", "Cleveland, OH 44113"]}, "phone": "+12168628065", "display_phone": "(216) 862-8065", "distance": 3993.2822166776123}, {"id": "9LAXz_VfATZ0kLdaavkN4g", "alias": "bakersfield-cleveland-15", "name": "Bakersfield", "image_url": "https://s3-media3.fl.yelpcdn.com/bphoto/BgKHTnX8cBKxdiDXCh_CQQ/o.jpg", "is_closed": false, "url": "https://www.yelp.com/biz/bakersfield-cleveland-15?adjust_creative=VZ7v1vIln-RpGHH5_leTWQ&utm_campaign=yelp_api_v3&utm_medium=api_v3_business_search&utm_source=VZ7v1vIln-RpGHH5_leTWQ", "review_count": 409, "categories": [{"alias": "bars", "title": "Bars"}, {"alias": "tacos", "title": "Tacos"}], "rating": 4.5, "coordinates": {"latitude": 41.4832899914507, "longitude": -81.7029820382595}, "transactions": ["delivery"], "price": "$$", "location": {"address1": "2058 W 25th St", "address2": "", "address3": null, "city": "Cleveland", "zip_code": "44113", "country": "US", "state": "OH", "display_address": ["2058 W 25th St", "Cleveland, OH 44113"]}, "phone": "+12164430460", "display_phone": "(216) 443-0460", "distance": 2776.926828955662}, {"id": "IoXcQkLpEaiv6S7ITelLWg", "alias": "ushabu-cleveland", "name": "Ushabu", "image_url": "https://s3-media3.fl.yelpcdn.com/bphoto/3TWpr_lN2QaR-ySSwaOKeQ/o.jpg", "is_closed": false, "url": "https://www.yelp.com/biz/ushabu-cleveland?adjust_creative=VZ7v1vIln-RpGHH5_leTWQ&utm_campaign=yelp_api_v3&utm_medium=api_v3_business_search&utm_source=VZ7v1vIln-RpGHH5_leTWQ", "review_count": 121, "categories": [{"alias": "japanese", "title": "Japanese"}, {"alias": "tapasmallplates", "title": "Tapas/Small Plates"}, {"alias": "hotpot", "title": "Hot Pot"}], "rating": 4.5, "coordinates": {"latitude": 41.4824, "longitude": -81.68717}, "transactions": ["delivery"], "price": "$$", "location": {"address1": "2173 Professor Ave", "address2": null, "address3": "", "city": "Cleveland", "zip_code": "44113", "country": "US", "state": "OH", "display_address": ["2173 Professor Ave", "Cleveland, OH 44113"]}, "phone": "+12167131741", "display_phone": "(216) 713-1741", "distance": 1585.9730342861792}, {"id": "LtDYRcMJbJPhXPEklT29Fw", "alias": "edwins-leadership-and-restaurant-institute-cleveland-3", "name": "EDWINS Leadership and Restaurant Institute", "image_url": "https://s3-media4.fl.yelpcdn.com/bphoto/LvXAjpGE44K9Pi-xB8DTGA/o.jpg", "is_closed": false, "url": "https://www.yelp.com/biz/edwins-leadership-and-restaurant-institute-cleveland-3?adjust_creative=VZ7v1vIln-RpGHH5_leTWQ&utm_campaign=yelp_api_v3&utm_medium=api_v3_business_search&utm_source=VZ7v1vIln-RpGHH5_leTWQ", "review_count": 198, "categories": [{"alias": "french", "title": "French"}, {"alias": "specialtyschools", "title": "Specialty Schools"}], "rating": 5.0, "coordinates": {"latitude": 41.4842350467245, "longitude": -81.5913967754631}, "transactions": ["delivery"], "price": "$$$", "location": {"address1": "13101 Shaker Sq", "address2": null, "address3": "", "city": "Cleveland", "zip_code": "44120", "country": "US", "state": "OH", "display_address": ["13101 Shaker Sq", "Cleveland, OH 44120"]}, "phone": "+12169213333", "display_phone": "(216) 921-3333", "distance": 6851.485463612565}], "total": 1500, "region": {"center": {"longitude": -81.67236328125, "latitude": 41.47341857719741}}}