{"businesses": [{"id": "iWLNyADtZsORV58bttRrBQ", "alias": "pizza-216-cleveland", "name": "Pizza 216", "image_url": "https://s3-media1.fl.yelpcdn.com/bphoto/AI0PLsWymqUwxDdRAWLM3A/o.jpg", "is_closed": false, "url": "https://www.yelp.com/biz/pizza-216-cleveland?adjust_creative=VZ7v1vIln-RpGHH5_leTWQ&utm_campaign=yelp_api_v3&utm_medium=api_v3_business_search&utm_source=VZ7v1vIln-RpGHH5_leTWQ", "review_count": 234, "categories": [{"alias": "bars", "title": "Bars"}, {"alias": "pizza", "title": "Pizza"}, {"alias": "italian", "title": "Italian"}], "rating": 4.0, "coordinates": {"latitude": 41.4998897413292, "longitude": -81.6902889773233}, "transactions": ["delivery", "pickup"], "price": "$$", "location": {"address1": "401 Euclid Ave", "address2": "", "address3": "", "city": "Cleveland", "zip_code": "44114", "country": "US", "state": "OH", "display_address": ["401 Euclid Ave", "Cleveland, OH 44114"]}, "phone": "+12167417992", "display_phone": "(216) 741-7992", "distance": 3300.523759511173}, {"id": "6kEIPvAe4ds3wL5-SCJOfw", "alias": "opal-on-pearl-cleveland", "name": "Opal on Pearl", "image_url": "https://s3-media1.fl.yelpcdn.com/bphoto/wDzVoC63A3BHQKFeMpcs4A/o.jpg", "is_closed": false, "url": "https://www.yelp.com/biz/opal-on-pearl-cleveland?adjust_creative=VZ7v1vIln-RpGHH5_leTWQ&utm_campaign=yelp_api_v3&utm_medium=api_v3_business_search&utm_source=VZ7v1vIln-RpGHH5_leTWQ", "review_count": 28, "categories": [{"alias": "wine_bars", "title": "Wine Bars"}, {"alias": "tapasmallplates", "title": "Tapas/Small Plates"}], "rating": 4.5, "coordinates": {"latitude": 41.43994, "longitude": -81.70642}, "transactions": ["delivery"], "location": {"address1": "4250 Pearl Rd", "address2": null, "address3": "", "city": "Cleveland", "zip_code": "44109", "country": "US", "state": "OH", "display_address": ["4250 Pearl Rd", "Cleveland, OH 44109"]}, "phone": "+12164172030", "display_phone": "(216) 417-2030", "distance": 4677.89110000651}, {"id": "o4HbgQnUkYnTLsbb6K5hjg", "alias": "society-lounge-cleveland", "name": "Society Lounge", "image_url": "https://s3-media1.fl.yelpcdn.com/bphoto/PYjONUhU9d4UUA9_GI3v3w/o.jpg", "is_closed": false, "url": "https://www.yelp.com/biz/society-lounge-cleveland?adjust_creative=VZ7v1vIln-RpGHH5_leTWQ&utm_campaign=yelp_api_v3&utm_medium=api_v3_business_search&utm_source=VZ7v1vIln-RpGHH5_leTWQ", "review_count": 258, "categories": [{"alias": "lounges", "title": "Lounges"}, {"alias": "newamerican", "title": "American (New)"}, {"alias": "cocktailbars", "title": "Cocktail Bars"}], "rating": 4.0, "coordinates": {"latitude": 41.4990300478702, "longitude": -81.6900841240656}, "transactions": ["delivery"], "price": "$$", "location": {"address1": "2063 E 4th St", "address2": null, "address3": "", "city": "Cleveland", "zip_code": "44115", "country": "US", "state": "OH", "display_address": ["2063 E 4th St", "Cleveland, OH 44115"]}, "phone": "+12167819050", "display_phone": "(216) 781-9050", "distance": 3207.679455519581}, {"id": "2nn6Sx5EFpzFbsy5cJYHUg", "alias": "merwins-wharf-cleveland-3", "name": "Merwin's Wharf", "image_url": "https://s3-media3.fl.yelpcdn.com/bphoto/4mCmWGwkt-ZP5CQ9WUFW4Q/o.jpg", "is_closed": false, "url": "https://www.yelp.com/biz/merwins-wharf-cleveland-3?adjust_creative=VZ7v1vIln-RpGHH5_leTWQ&utm_campaign=yelp_api_v3&utm_medium=api_v3_business_search&utm_source=VZ7v1vIln-RpGHH5_leTWQ", "review_count": 224, "categories": [{"alias": "newamerican", "title": "American (New)"}, {"alias": "tradamerican", "title": "American (Traditional)"}], "rating": 3.5, "coordinates": {"latitude": 41.4894571296556, "longitude": -81.702612576728}, "transactions": ["delivery"], "price": "$$", "location": {"address1": "1785 Merwin Ave", "address2": "", "address3": "", "city": "Cleveland", "zip_code": "44113", "country": "US", "state": "OH", "display_address": ["1785 Merwin Ave", "Cleveland, OH 44113"]}, "phone": "+12166645696", "display_phone": "(216) 664-5696", "distance": 3087.1244980701117}, {"id": "a1_ZedhXo5mVflOV471pCA", "alias": "melys-kainan-cleveland", "name": "Mely's Kainan", "image_url": "https://s3-media2.fl.yelpcdn.com/bphoto/dPxwM96cJUjdpVQARomgrQ/o.jpg", "is_closed": false, "url": "https://www.yelp.com/biz/melys-kainan-cleveland?adjust_creative=VZ7v1vIln-RpGHH5_leTWQ&utm_campaign=yelp_api_v3&utm_medium=api_v3_business_search&utm_source=VZ7v1vIln-RpGHH5_leTWQ", "review_count": 27, "categories": [{"alias": "filipino", "title": "Filipino"}], "rating": 4.5, "coordinates": {"latitude": 41.414498, "longitude": -81.710924}, "transactions": [], "price": "$", "location": {"address1": "5382 State Rd", "address2": "", "address3": "", "city": "Cleveland", "zip_code": "44134", "country": "US", "state": "OH", "display_address": ["5382 State Rd", "Cleveland, OH 44134"]}, "phone": "+12167411332", "display_phone": "(216) 741-1332", "distance": 7297.588441417855}, {"id": "eoJfl5vG7X87QhcKb0nt5Q", "alias": "hofbrauhaus-cleveland-cleveland-12", "name": "Hofbrauhaus Cleveland", "image_url": "https://s3-media1.fl.yelpcdn.com/bphoto/AgBYCEysPnEcOvaqbv0wBg/o.jpg", "is_closed": false, "url": "https://www.yelp.com/biz/hofbrauhaus-cleveland-cleveland-12?adjust_creative=VZ7v1vIln-RpGHH5_leTWQ&utm_campaign=yelp_api_v3&utm_medium=api_v3_business_search&utm_source=VZ7v1vIln-RpGHH5_leTWQ", "review_count": 388, "categories": [{"alias": "bars", "title": "Bars"}, {"alias": "german", "title": "German"}, {"alias": "beergardens", "title": "Beer Gardens"}], "rating": 3.0, "coordinates": {"latitude": 41.5030256, "longitude": -81.6813253}, "transactions": ["delivery", "pickup"], "price": "$$", "location": {"address1": "1550 Chester Ave", "address2": "", "address3": "", "city": "Cleveland", "zip_code": "44114", "country": "US", "state": "OH", "display_address": ["1550 Chester Ave", "Cleveland, OH 44114"]}, "phone": "+12166212337", "display_phone": "(216) 621-2337", "distance": 3353.785036524117}, {"id": "SoCjdgcYyj05tSPWz6MUXg", "alias": "pupuseria-la-bendicion-cleveland", "name": "Pupuseria La Bendicion", "image_url": "https://s3-media2.fl.yelpcdn.com/bphoto/z3pehTBhIEgNb_0Vpf4llw/o.jpg", "is_closed": false, "url": "https://www.yelp.com/biz/pupuseria-la-bendicion-cleveland?adjust_creative=VZ7v1vIln-RpGHH5_leTWQ&utm_campaign=yelp_api_v3&utm_medium=api_v3_business_search&utm_source=VZ7v1vIln-RpGHH5_leTWQ", "review_count": 133, "categories": [{"alias": "salvadoran", "title": "Salvadoran"}, {"alias": "colombian", "title": "Colombian"}], "rating": 4.5, "coordinates": {"latitude": 41.4521747, "longitude": -81.7590704}, "transactions": ["delivery"], "price": "$", "location": {"address1": "3685 W 105th St", "address2": null, "address3": null, "city": "Cleveland", "zip_code": "44111", "country": "US", "state": "OH", "display_address": ["3685 W 105th St", "Cleveland, OH 44111"]}, "phone": "+12166880338", "display_phone": "(216) 688-0338", "distance": 7591.461180684268}, {"id": "yTv4ptghx8xrErx6dcW3HA", "alias": "toast-cleveland", "name": "Toast", "image_url": "https://s3-media2.fl.yelpcdn.com/bphoto/BRfrGTvHGTAR1Yt-7AqhNg/o.jpg", "is_closed": false, "url": "https://www.yelp.com/biz/toast-cleveland?adjust_creative=VZ7v1vIln-RpGHH5_leTWQ&utm_campaign=yelp_api_v3&utm_medium=api_v3_business_search&utm_source=VZ7v1vIln-RpGHH5_leTWQ", "review_count": 156, "categories": [{"alias": "wine_bars", "title": "Wine Bars"}, {"alias": "breakfast_brunch", "title": "Breakfast & Brunch"}, {"alias": "tradamerican", "title": "American (Traditional)"}], "rating": 4.0, "coordinates": {"latitude": 41.4849891662598, "longitude": -81.7299499511719}, "transactions": ["delivery"], "price": "$$", "location": {"address1": "1365 W 65th St", "address2": null, "address3": "", "city": "Cleveland", "zip_code": "44102", "country": "US", "state": "OH", "display_address": ["1365 W 65th St", "Cleveland, OH 44102"]}, "phone": "+12168628974", "display_phone": "(216) 862-8974", "distance": 4970.963488222837}, {"id": "dUxnPaU2S67QQYpWTSjqTA", "alias": "masthead-brewing-cleveland", "name": "Masthead Brewing", "image_url": "https://s3-media4.fl.yelpcdn.com/bphoto/0D3GcCMNsbtY3DXp7k1mnA/o.jpg", "is_closed": false, "url": "https://www.yelp.com/biz/masthead-brewing-cleveland?adjust_creative=VZ7v1vIln-RpGHH5_leTWQ&utm_campaign=yelp_api_v3&utm_medium=api_v3_business_search&utm_source=VZ7v1vIln-RpGHH5_leTWQ", "review_count": 254, "categories": [{"alias": "breweries", "title": "Breweries"}, {"alias": "pizza", "title": "Pizza"}, {"alias": "venues", "title": "Venues & Event Spaces"}], "rating": 4.5, "coordinates": {"latitude": 41.50417, "longitude": -81.68541}, "transactions": ["delivery", "pickup"], "price": "$$", "location": {"address1": "1261 Superior Ave", "address2": null, "address3": "", "city": "Cleveland", "zip_code": "44114", "country": "US", "state": "OH", "display_address": ["1261 Superior Ave", "Cleveland, OH 44114"]}, "phone": "+12162066176", "display_phone": "(216) 206-6176", "distance": 3595.112813655081}, {"id": "uBGPTzye3wrxZPf54AXuFg", "alias": "nuevo-modern-mexican-and-tequila-bar-cleveland-3", "name": "Nuevo Modern Mexican & Tequila Bar", "image_url": "https://s3-media3.fl.yelpcdn.com/bphoto/Nb5-GD0ZHquWOOAszIMMFg/o.jpg", "is_closed": false, "url": "https://www.yelp.com/biz/nuevo-modern-mexican-and-tequila-bar-cleveland-3?adjust_creative=VZ7v1vIln-RpGHH5_leTWQ&utm_campaign=yelp_api_v3&utm_medium=api_v3_business_search&utm_source=VZ7v1vIln-RpGHH5_leTWQ", "review_count": 308, "categories": [{"alias": "newmexican", "title": "New Mexican Cuisine"}, {"alias": "cocktailbars", "title": "Cocktail Bars"}], "rating": 3.0, "coordinates": {"latitude": 41.5108337402344, "longitude": -81.6961975097656}, "transactions": ["delivery", "pickup"], "price": "$$", "location": {"address1": "1000 East 9th St", "address2": "", "address3": null, "city": "Cleveland", "zip_code": "44114", "country": "US", "state": "OH", "display_address": ["1000 East 9th St", "Cleveland, OH 44114"]}, "phone": "+12167371000", "display_phone": "(216) 737-1000", "distance": 4574.229637550649}, {"id": "nv1XdkWviHXO7N6mK8O1yg", "alias": "dons-lighthouse-cleveland", "name": "Don's Lighthouse", "image_url": "https://s3-media2.fl.yelpcdn.com/bphoto/Tkuem2_Jcn64zrUI4IhFGQ/o.jpg", "is_closed": false, "url": "https://www.yelp.com/biz/dons-lighthouse-cleveland?adjust_creative=VZ7v1vIln-RpGHH5_leTWQ&utm_campaign=yelp_api_v3&utm_medium=api_v3_business_search&utm_source=VZ7v1vIln-RpGHH5_leTWQ", "review_count": 165, "categories": [{"alias": "seafood", "title": "Seafood"}, {"alias": "steak", "title": "Steakhouses"}, {"alias": "newamerican", "title": "American (New)"}], "rating": 3.5, "coordinates": {"latitude": 41.484518, "longitude": -81.746095}, "transactions": ["delivery"], "price": "$$", "location": {"address1": "8905 Lake Ave", "address2": "", "address3": "", "city": "Cleveland", "zip_code": "44102", "country": "US", "state": "OH", "display_address": ["8905 Lake Ave", "Cleveland, OH 44102"]}, "phone": "+12169616700", "display_phone": "(216) 961-6700", "distance": 6265.1378800127695}, {"id": "evIqB8Nx986Oftv8Zv-QaA", "alias": "zhug-cleveland-heights", "name": "Zhug", "image_url": "https://s3-media2.fl.yelpcdn.com/bphoto/DMBLePvAs3UDKkuFIYp9yw/o.jpg", "is_closed": false, "url": "https://www.yelp.com/biz/zhug-cleveland-heights?adjust_creative=VZ7v1vIln-RpGHH5_leTWQ&utm_campaign=yelp_api_v3&utm_medium=api_v3_business_search&utm_source=VZ7v1vIln-RpGHH5_leTWQ", "review_count": 56, "categories": [{"alias": "mediterranean", "title": "Mediterranean"}, {"alias": "mideastern", "title": "Middle Eastern"}], "rating": 4.5, "coordinates": {"latitude": 41.50122, "longitude": -81.59386}, "transactions": ["delivery"], "location": {"address1": "12413 Cedar Rd", "address2": "", "address3": null, "city": "Cleveland Heights", "zip_code": "44106", "country": "US", "state": "OH", "display_address": ["12413 Cedar Rd", "Cleveland Heights, OH 44106"]}, "phone": "+12168622508", "display_phone": "(216) 862-2508", "distance": 7233.022748263}, {"id": "wftmt-n8OUA4Ng3bWWH5dw", "alias": "wonton-gourmet-and-bbq-cleveland", "name": "Wonton Gourmet & BBQ", "image_url": "https://s3-media2.fl.yelpcdn.com/bphoto/djhSelWcFB-wLUzH0ahceQ/o.jpg", "is_closed": false, "url": "https://www.yelp.com/biz/wonton-gourmet-and-bbq-cleveland?adjust_creative=VZ7v1vIln-RpGHH5_leTWQ&utm_campaign=yelp_api_v3&utm_medium=api_v3_business_search&utm_source=VZ7v1vIln-RpGHH5_leTWQ", "review_count": 288, "categories": [{"alias": "chinese", "title": "Chinese"}, {"alias": "bbq", "title": "Barbeque"}], "rating": 4.0, "coordinates": {"latitude": 41.5088920593262, "longitude": -81.6662826538086}, "transactions": ["delivery", "pickup"], "price": "$$", "location": {"address1": "3211 Payne Ave", "address2": "", "address3": "", "city": "Cleveland", "zip_code": "44114", "country": "US", "state": "OH", "display_address": ["3211 Payne Ave", "Cleveland, OH 44114"]}, "phone": "+12168757000", "display_phone": "(216) 875-7000", "distance": 3978.055546925977}, {"id": "wxMDlB4MJ65CHQVxOYm5_w", "alias": "landmark-cleveland", "name": "Landmark Smokehouse", "image_url": "https://s3-media2.fl.yelpcdn.com/bphoto/1-mIlPCDVhVtyW43H9m_-g/o.jpg", "is_closed": false, "url": "https://www.yelp.com/biz/landmark-cleveland?adjust_creative=VZ7v1vIln-RpGHH5_leTWQ&utm_campaign=yelp_api_v3&utm_medium=api_v3_business_search&utm_source=VZ7v1vIln-RpGHH5_leTWQ", "review_count": 123, "categories": [{"alias": "breakfast_brunch", "title": "Breakfast & Brunch"}, {"alias": "diners", "title": "Diners"}, {"alias": "salad", "title": "Salad"}], "rating": 4.5, "coordinates": {"latitude": 41.4872978, "longitude": -81.7683908}, "transactions": ["delivery", "pickup"], "price": "$$", "location": {"address1": "11637 Clifton Blvd", "address2": "", "address3": null, "city": "Cleveland", "zip_code": "44102", "country": "US", "state": "OH", "display_address": ["11637 Clifton Blvd", "Cleveland, OH 44102"]}, "phone": "+12162304040", "display_phone": "(216) 230-4040", "distance": 8154.721891487086}, {"id": "LvnOhs9Udhyp5adF7Cq98g", "alias": "sushi-86-cleveland-2", "name": "Sushi 86", "image_url": "https://s3-media4.fl.yelpcdn.com/bphoto/LHWvUTqjOh5cdWEmSfg1Vw/o.jpg", "is_closed": false, "url": "https://www.yelp.com/biz/sushi-86-cleveland-2?adjust_creative=VZ7v1vIln-RpGHH5_leTWQ&utm_campaign=yelp_api_v3&utm_medium=api_v3_business_search&utm_source=VZ7v1vIln-RpGHH5_leTWQ", "review_count": 217, "categories": [{"alias": "sushi", "title": "Sushi Bars"}], "rating": 4.0, "coordinates": {"latitude": 41.498450233886, "longitude": -81.6889455073791}, "transactions": ["delivery", "pickup"], "price": "$$", "location": {"address1": "509 Prospect Ave", "address2": null, "address3": "", "city": "Cleveland", "zip_code": "44115", "country": "US", "state": "OH", "display_address": ["509 Prospect Ave", "Cleveland, OH 44115"]}, "phone": "+12166218686", "display_phone": "(216) 621-8686", "distance": 3107.275376550327}, {"id": "ntds2JP29DPYp765oFqptw", "alias": "rusty-anchor-cleveland", "name": "Rusty Anchor", "image_url": "https://s3-media2.fl.yelpcdn.com/bphoto/4rpU0MDPCAiOJva_G-MxPA/o.jpg", "is_closed": false, "url": "https://www.yelp.com/biz/rusty-anchor-cleveland?adjust_creative=VZ7v1vIln-RpGHH5_leTWQ&utm_campaign=yelp_api_v3&utm_medium=api_v3_business_search&utm_source=VZ7v1vIln-RpGHH5_leTWQ", "review_count": 59, "categories": [{"alias": "seafood", "title": "Seafood"}, {"alias": "steak", "title": "Steakhouses"}], "rating": 3.5, "coordinates": {"latitude": 41.498251, "longitude": -81.706988}, "transactions": ["delivery"], "price": "$$", "location": {"address1": "1148 Main Ave", "address2": "", "address3": null, "city": "Cleveland", "zip_code": "44113", "country": "US", "state": "OH", "display_address": ["1148 Main Ave", "Cleveland, OH 44113"]}, "phone": "+12162421250", "display_phone": "(216) 242-1250", "distance": 3992.856211640488}, {"id": "TfA-9i8FOTithQ3a560TMg", "alias": "irie-jamaican-kitchen-cleveland-3", "name": "Irie Jamaican Kitchen", "image_url": "https://s3-media2.fl.yelpcdn.com/bphoto/sP-zfdZ4FRpNf8-3BiGUYg/o.jpg", "is_closed": false, "url": "https://www.yelp.com/biz/irie-jamaican-kitchen-cleveland-3?adjust_creative=VZ7v1vIln-RpGHH5_leTWQ&utm_campaign=yelp_api_v3&utm_medium=api_v3_business_search&utm_source=VZ7v1vIln-RpGHH5_leTWQ", "review_count": 9, "categories": [{"alias": "caribbean", "title": "Caribbean"}], "rating": 4.5, "coordinates": {"latitude": 41.44208, "longitude": -81.70493}, "transactions": ["delivery"], "location": {"address1": "4162 Pearl Rd", "address2": "", "address3": null, "city": "Cleveland", "zip_code": "44109", "country": "US", "state": "OH", "display_address": ["4162 Pearl Rd", "Cleveland, OH 44109"]}, "phone": "+12162917488", "display_phone": "(216) 291-7488", "distance": 4416.937087955084}, {"id": "VUOn9pztnaEX49Xfb_9L7A", "alias": "osteria-di-al-cleveland", "name": "OSTERIA di AL", "image_url": "https://s3-media4.fl.yelpcdn.com/bphoto/JxjjXgEOqWKoOE0F9oaplQ/o.jpg", "is_closed": false, "url": "https://www.yelp.com/biz/osteria-di-al-cleveland?adjust_creative=VZ7v1vIln-RpGHH5_leTWQ&utm_campaign=yelp_api_v3&utm_medium=api_v3_business_search&utm_source=VZ7v1vIln-RpGHH5_leTWQ", "review_count": 84, "categories": [{"alias": "italian", "title": "Italian"}], "rating": 4.0, "coordinates": {"latitude": 41.50173, "longitude": -81.68753}, "transactions": ["delivery"], "price": "$$$", "location": {"address1": "1801 E 9th St", "address2": "Fl 1", "address3": "Ohio Savings Plaza", "city": "Cleveland", "zip_code": "44114", "country": "US", "state": "OH", "display_address": ["1801 E 9th St", "Fl 1", "Ohio Savings Plaza", "Cleveland, OH 44114"]}, "phone": "+12166859490", "display_phone": "(216) 685-9490", "distance": 3392.183712195172}, {"id": "wbGOeoSttZguRXldqaiBVA", "alias": "zanzibar-soul-fusion-cleveland-2", "name": "Zanzibar Soul Fusion", "image_url": "https://s3-media4.fl.yelpcdn.com/bphoto/kWdqmt-s41LH54UFtv69hw/o.jpg", "is_closed": false, "url": "https://www.yelp.com/biz/zanzibar-soul-fusion-cleveland-2?adjust_creative=VZ7v1vIln-RpGHH5_leTWQ&utm_campaign=yelp_api_v3&utm_medium=api_v3_business_search&utm_source=VZ7v1vIln-RpGHH5_leTWQ", "review_count": 221, "categories": [{"alias": "southern", "title": "Southern"}, {"alias": "soulfood", "title": "Soul Food"}], "rating": 3.5, "coordinates": {"latitude": 41.4841699, "longitude": -81.5897353}, "transactions": ["delivery", "pickup", "restaurant_reservation"], "price": "$$", "location": {"address1": "13225 Shaker Square", "address2": "", "address3": "", "city": "Cleveland", "zip_code": "44120", "country": "US", "state": "OH", "display_address": ["13225 Shaker Square", "Cleveland, OH 44120"]}, "phone": "+12167521035", "display_phone": "(216) 752-1035", "distance": 6986.551467742651}, {"id": "S1zlGFu9fi5-QmVpGqsKsA", "alias": "michaelangelos-cleveland", "name": "Michaelangelo's", "image_url": "https://s3-media4.fl.yelpcdn.com/bphoto/1rne6BGFVmNp0c81XFUX2A/o.jpg", "is_closed": false, "url": "https://www.yelp.com/biz/michaelangelos-cleveland?adjust_creative=VZ7v1vIln-RpGHH5_leTWQ&utm_campaign=yelp_api_v3&utm_medium=api_v3_business_search&utm_source=VZ7v1vIln-RpGHH5_leTWQ", "review_count": 106, "categories": [{"alias": "italian", "title": "Italian"}], "rating": 4.0, "coordinates": {"latitude": 41.5041, "longitude": -81.60152}, "transactions": ["delivery"], "price": "$$$", "location": {"address1": "2198 Murray Hill Rd", "address2": "", "address3": "", "city": "Cleveland", "zip_code": "44178", "country": "US", "state": "OH", "display_address": ["2198 Murray Hill Rd", "Cleveland, OH 44178"]}, "phone": "+12167210300", "display_phone": "(216) 721-0300", "distance": 6842.356202072938}, {"id": "xDnkfWCyaUdR6iMoxnuWyg", "alias": "dagu-rice-noodle-cleveland", "name": "Dagu Rice Noodle", "image_url": "https://s3-media2.fl.yelpcdn.com/bphoto/twkAlzZa9uCR-NXiixrX3g/o.jpg", "is_closed": false, "url": "https://www.yelp.com/biz/dagu-rice-noodle-cleveland?adjust_creative=VZ7v1vIln-RpGHH5_leTWQ&utm_campaign=yelp_api_v3&utm_medium=api_v3_business_search&utm_source=VZ7v1vIln-RpGHH5_leTWQ", "review_count": 44, "categories": [{"alias": "noodles", "title": "Noodles"}, {"alias": "shanghainese", "title": "Shanghainese"}, {"alias": "soup", "title": "Soup"}], "rating": 4.5, "coordinates": {"latitude": 41.5095, "longitude": -81.66247}, "transactions": ["delivery", "pickup"], "price": "$$", "location": {"address1": "3710 Payne Ave", "address2": "", "address3": null, "city": "Cleveland", "zip_code": "44114", "country": "US", "state": "OH", "display_address": ["3710 Payne Ave", "Cleveland, OH 44114"]}, "phone": "", "display_phone": "", "distance": 4109.114389967975}, {"id": "Ged33xMUz2TpAgzxycGfVw", "alias": "el-rinconcito-chapin-cleveland", "name": "El Rinconcito Chapin", "image_url": "https://s3-media1.fl.yelpcdn.com/bphoto/DNJRvRB8TcPBKE4s3W3uFw/o.jpg", "is_closed": false, "url": "https://www.yelp.com/biz/el-rinconcito-chapin-cleveland?adjust_creative=VZ7v1vIln-RpGHH5_leTWQ&utm_campaign=yelp_api_v3&utm_medium=api_v3_business_search&utm_source=VZ7v1vIln-RpGHH5_leTWQ", "review_count": 51, "categories": [{"alias": "latin", "title": "Latin American"}, {"alias": "tapasmallplates", "title": "Tapas/Small Plates"}], "rating": 4.5, "coordinates": {"latitude": 41.44149, "longitude": -81.70388}, "transactions": ["delivery"], "price": "$$", "location": {"address1": "3330 Broadview Rd", "address2": "", "address3": "", "city": "Cleveland", "zip_code": "44109", "country": "US", "state": "OH", "display_address": ["3330 Broadview Rd", "Cleveland, OH 44109"]}, "phone": "+12167955776", "display_phone": "(216) 795-5776", "distance": 4417.20604867963}, {"id": "Rv-Gg0gqteFU3WEYjHvurg", "alias": "cilantro-taqueria-cleveland-2", "name": "Cilantro Taqueria", "image_url": "https://s3-media1.fl.yelpcdn.com/bphoto/xLlpM_ZLO32vqb1-2NOmYw/o.jpg", "is_closed": false, "url": "https://www.yelp.com/biz/cilantro-taqueria-cleveland-2?adjust_creative=VZ7v1vIln-RpGHH5_leTWQ&utm_campaign=yelp_api_v3&utm_medium=api_v3_business_search&utm_source=VZ7v1vIln-RpGHH5_leTWQ", "review_count": 86, "categories": [{"alias": "tacos", "title": "Tacos"}], "rating": 4.5, "coordinates": {"latitude": 41.5082566, "longitude": -81.5807158}, "transactions": ["delivery", "pickup"], "price": "$", "location": {"address1": "2783 Euclid Hts Blvd", "address2": null, "address3": "", "city": "Cleveland", "zip_code": "44106", "country": "US", "state": "OH", "display_address": ["2783 Euclid Hts Blvd", "Cleveland, OH 44106"]}, "phone": "+12163313069", "display_phone": "(216) 331-3069", "distance": 8560.163240020172}, {"id": "02E9r4BQzVrA76Bf7G-KMw", "alias": "edisons-pizza-kitchen-cleveland", "name": "Edison's Pizza Kitchen", "image_url": "https://s3-media2.fl.yelpcdn.com/bphoto/ELtlT31aMpZBKi_HH1JIoQ/o.jpg", "is_closed": false, "url": "https://www.yelp.com/biz/edisons-pizza-kitchen-cleveland?adjust_creative=VZ7v1vIln-RpGHH5_leTWQ&utm_campaign=yelp_api_v3&utm_medium=api_v3_business_search&utm_source=VZ7v1vIln-RpGHH5_leTWQ", "review_count": 202, "categories": [{"alias": "pizza", "title": "Pizza"}], "rating": 4.0, "coordinates": {"latitude": 41.48021, "longitude": -81.68498}, "transactions": [], "price": "$$", "location": {"address1": "2373 Professor Ave", "address2": "", "address3": "", "city": "Cleveland", "zip_code": "44113", "country": "US", "state": "OH", "display_address": ["2373 Professor Ave", "Cleveland, OH 44113"]}, "phone": "+12162984484", "display_phone": "(216) 298-4484", "distance": 1294.7628678899537}, {"id": "YyyqcbVyoBo4wPsgowUtUQ", "alias": "sasa-cleveland", "name": "SASA", "image_url": "https://s3-media2.fl.yelpcdn.com/bphoto/P51T_CGcPyTFzqbxwakN3A/o.jpg", "is_closed": false, "url": "https://www.yelp.com/biz/sasa-cleveland?adjust_creative=VZ7v1vIln-RpGHH5_leTWQ&utm_campaign=yelp_api_v3&utm_medium=api_v3_business_search&utm_source=VZ7v1vIln-RpGHH5_leTWQ", "review_count": 103, "categories": [{"alias": "japanese", "title": "Japanese"}], "rating": 4.0, "coordinates": {"latitude": 41.48319, "longitude": -81.59123}, "transactions": ["delivery"], "price": "$$", "location": {"address1": "13120 Shaker Sq", "address2": "", "address3": "", "city": "Cleveland", "zip_code": "44120", "country": "US", "state": "OH", "display_address": ["13120 Shaker Sq", "Cleveland, OH 44120"]}, "phone": "+12167671111", "display_phone": "(216) 767-1111", "distance": 6840.808912570861}, {"id": "m6O4gOfTtqJKmz0Ev2-PCg", "alias": "doc-and-lennies-cleveland", "name": "Doc and Lennies", "image_url": "https://s3-media3.fl.yelpcdn.com/bphoto/CewhvybtyDYZlOMpugcczA/o.jpg", "is_closed": false, "url": "https://www.yelp.com/biz/doc-and-lennies-cleveland?adjust_creative=VZ7v1vIln-RpGHH5_leTWQ&utm_campaign=yelp_api_v3&utm_medium=api_v3_business_search&utm_source=VZ7v1vIln-RpGHH5_leTWQ", "review_count": 28, "categories": [{"alias": "diners", "title": "Diners"}, {"alias": "soulfood", "title": "Soul Food"}], "rating": 4.5, "coordinates": {"latitude": 41.49986, "longitude": -81.6233}, "transactions": ["delivery", "pickup"], "price": "$", "location": {"address1": "8933 Cedar Ave", "address2": "", "address3": "", "city": "Cleveland", "zip_code": "44106", "country": "US", "state": "OH", "display_address": ["8933 Cedar Ave", "Cleveland, OH 44106"]}, "phone": "+12162298090", "display_phone": "(216) 229-8090", "distance": 5032.3942640782225}, {"id": "d9fHu9xEmCDs9ShFIWEMZw", "alias": "kifayas-kitchen-cleveland", "name": "Kifaya's Kitchen", "image_url": "https://s3-media2.fl.yelpcdn.com/bphoto/FFX3nyjpYh1FTqUHq_-_Iw/o.jpg", "is_closed": false, "url": "https://www.yelp.com/biz/kifayas-kitchen-cleveland?adjust_creative=VZ7v1vIln-RpGHH5_leTWQ&utm_campaign=yelp_api_v3&utm_medium=api_v3_business_search&utm_source=VZ7v1vIln-RpGHH5_leTWQ", "review_count": 39, "categories": [{"alias": "african", "title": "African"}, {"alias": "mediterranean", "title": "Mediterranean"}], "rating": 5.0, "coordinates": {"latitude": 41.453732, "longitude": -81.769322}, "transactions": ["delivery"], "price": "$$", "location": {"address1": "3650 W 117th St", "address2": "", "address3": "", "city": "Cleveland", "zip_code": "44111", "country": "US", "state": "OH", "display_address": ["3650 W 117th St", "Cleveland, OH 44111"]}, "phone": "+12162198263", "display_phone": "(216) 219-8263", "distance": 8370.56509653494}, {"id": "ijY4C4ut4M9xg3QvK2R2pg", "alias": "li-wah-cleveland", "name": "Li Wah", "image_url": "https://s3-media2.fl.yelpcdn.com/bphoto/d0MXgssW-Pi2sYdxU8Rcxg/o.jpg", "is_closed": false, "url": "https://www.yelp.com/biz/li-wah-cleveland?adjust_creative=VZ7v1vIln-RpGHH5_leTWQ&utm_campaign=yelp_api_v3&utm_medium=api_v3_business_search&utm_source=VZ7v1vIln-RpGHH5_leTWQ", "review_count": 346, "categories": [{"alias": "dimsum", "title": "Dim Sum"}, {"alias": "cantonese", "title": "Cantonese"}], "rating": 3.5, "coordinates": {"latitude": 41.5083668054267, "longitude": -81.669370655881}, "transactions": ["delivery"], "price": "$$", "location": {"address1": "2999 Payne Ave", "address2": "Ste 102", "address3": "", "city": "Cleveland", "zip_code": "44114", "country": "US", "state": "OH", "display_address": ["2999 Payne Ave", "Ste 102", "Cleveland, OH 44114"]}, "phone": "+12166966556", "display_phone": "(216) 696-6556", "distance": 3894.0472372589747}, {"id": "-_DxZ8gKU50sfuZEu4ypKg", "alias": "saigon-restaurant-and-bar-cleveland", "name": "Saigon Restaurant and Bar", "image_url": "https://s3-media3.fl.yelpcdn.com/bphoto/ByMeJE8az-iQ8hDErSi4DA/o.jpg", "is_closed": false, "url": "https://www.yelp.com/biz/saigon-restaurant-and-bar-cleveland?adjust_creative=VZ7v1vIln-RpGHH5_leTWQ&utm_campaign=yelp_api_v3&utm_medium=api_v3_business_search&utm_source=VZ7v1vIln-RpGHH5_leTWQ", "review_count": 224, "categories": [{"alias": "vietnamese", "title": "Vietnamese"}, {"alias": "chinese", "title": "Chinese"}, {"alias": "thai", "title": "Thai"}], "rating": 4.0, "coordinates": {"latitude": 41.4989085, "longitude": -81.6899104}, "transactions": ["delivery"], "price": "$$", "location": {"address1": "2061 E 4th St", "address2": "", "address3": "", "city": "Cleveland", "zip_code": "44115", "country": "US", "state": "OH", "display_address": ["2061 E 4th St", "Cleveland, OH 44115"]}, "phone": "+12163442020", "display_phone": "(216) 344-2020", "distance": 3177.3574735057555}, {"id": "tXJkGjBkGOZHWAcCmlzS6w", "alias": "valerios-restaurant-cleveland", "name": "Valerio's Restaurant", "image_url": "https://s3-media4.fl.yelpcdn.com/bphoto/0kfIoqZx8sHo8Q6Okxo1ng/o.jpg", "is_closed": false, "url": "https://www.yelp.com/biz/valerios-restaurant-cleveland?adjust_creative=VZ7v1vIln-RpGHH5_leTWQ&utm_campaign=yelp_api_v3&utm_medium=api_v3_business_search&utm_source=VZ7v1vIln-RpGHH5_leTWQ", "review_count": 65, "categories": [{"alias": "italian", "title": "Italian"}, {"alias": "bars", "title": "Bars"}], "rating": 4.0, "coordinates": {"latitude": 41.5088882446289, "longitude": -81.5965805053711}, "transactions": ["delivery"], "price": "$$$", "location": {"address1": "12405 Mayfield Rd", "address2": "", "address3": "", "city": "Cleveland", "zip_code": "44106", "country": "US", "state": "OH", "display_address": ["12405 Mayfield Rd", "Cleveland, OH 44106"]}, "phone": "+12164218049", "display_phone": "(216) 421-8049", "distance": 7442.297737187157}, {"id": "OzRGWW5R05kC0pQyUHX3lg", "alias": "guarinos-restaurant-cleveland", "name": "Guarino's Restaurant", "image_url": "https://s3-media3.fl.yelpcdn.com/bphoto/5T3KoH9cGDrODWcd2R_CPQ/o.jpg", "is_closed": false, "url": "https://www.yelp.com/biz/guarinos-restaurant-cleveland?adjust_creative=VZ7v1vIln-RpGHH5_leTWQ&utm_campaign=yelp_api_v3&utm_medium=api_v3_business_search&utm_source=VZ7v1vIln-RpGHH5_leTWQ", "review_count": 167, "categories": [{"alias": "italian", "title": "Italian"}], "rating": 3.5, "coordinates": {"latitude": 41.50886, "longitude": -81.59697}, "transactions": ["delivery"], "price": "$$", "location": {"address1": "12309 Mayfield Rd", "address2": "", "address3": "", "city": "Cleveland", "zip_code": "44106", "country": "US", "state": "OH", "display_address": ["12309 Mayfield Rd", "Cleveland, OH 44106"]}, "phone": "+12162313100", "display_phone": "(216) 231-3100", "distance": 7412.935665393031}, {"id": "ZL-4ejIO3DCgSsdRWwsX-A", "alias": "vincenzas-pizza-and-pasta-cleveland", "name": "Vincenza's Pizza & Pasta", "image_url": "https://s3-media3.fl.yelpcdn.com/bphoto/DUYkUpxZtajsRqche7f7KA/o.jpg", "is_closed": false, "url": "https://www.yelp.com/biz/vincenzas-pizza-and-pasta-cleveland?adjust_creative=VZ7v1vIln-RpGHH5_leTWQ&utm_campaign=yelp_api_v3&utm_medium=api_v3_business_search&utm_source=VZ7v1vIln-RpGHH5_leTWQ", "review_count": 113, "categories": [{"alias": "pizza", "title": "Pizza"}, {"alias": "italian", "title": "Italian"}, {"alias": "salad", "title": "Salad"}], "rating": 4.5, "coordinates": {"latitude": 41.4986854, "longitude": -81.6883039}, "transactions": ["delivery"], "price": "$", "location": {"address1": "603 Prospect Ave E", "address2": "", "address3": "", "city": "Cleveland", "zip_code": "44115", "country": "US", "state": "OH", "display_address": ["603 Prospect Ave E", "Cleveland, OH 44115"]}, "phone": "+12162418382", "display_phone": "(216) 241-8382", "distance": 3118.3807066241857}, {"id": "QHokh0YmRFAwVk_tHnioig", "alias": "larder-delicatessen-and-bakery-cleveland", "name": "Larder Delicatessen and Bakery", "image_url": "https://s3-media1.fl.yelpcdn.com/bphoto/eUWZHNT8HYOcELnSiKe3xA/o.jpg", "is_closed": false, "url": "https://www.yelp.com/biz/larder-delicatessen-and-bakery-cleveland?adjust_creative=VZ7v1vIln-RpGHH5_leTWQ&utm_campaign=yelp_api_v3&utm_medium=api_v3_business_search&utm_source=VZ7v1vIln-RpGHH5_leTWQ", "review_count": 76, "categories": [{"alias": "delis", "title": "Delis"}, {"alias": "bakeries", "title": "Bakeries"}], "rating": 4.5, "coordinates": {"latitude": 41.4891430188988, "longitude": -81.7103515896413}, "transactions": ["delivery"], "price": "$$", "location": {"address1": "1455 W 29th St", "address2": "", "address3": null, "city": "Cleveland", "zip_code": "44113", "country": "US", "state": "OH", "display_address": ["1455 W 29th St", "Cleveland, OH 44113"]}, "phone": "+12169128203", "display_phone": "(216) 912-8203", "distance": 3615.4854828767047}, {"id": "OyhCNhJJuJjUt2avxI5POg", "alias": "chocolate-bar-cleveland", "name": "Chocolate Bar", "image_url": "https://s3-media1.fl.yelpcdn.com/bphoto/ZSmeJmH8xK0EKzzSVbnGvQ/o.jpg", "is_closed": false, "url": "https://www.yelp.com/biz/chocolate-bar-cleveland?adjust_creative=VZ7v1vIln-RpGHH5_leTWQ&utm_campaign=yelp_api_v3&utm_medium=api_v3_business_search&utm_source=VZ7v1vIln-RpGHH5_leTWQ", "review_count": 581, "categories": [{"alias": "bars", "title": "Bars"}, {"alias": "tradamerican", "title": "American (Traditional)"}], "rating": 3.0, "coordinates": {"latitude": 41.4999483977137, "longitude": -81.6903614413523}, "transactions": ["delivery", "pickup"], "price": "$$", "location": {"address1": "347 Euclid Ave", "address2": null, "address3": null, "city": "Cleveland", "zip_code": "44114", "country": "US", "state": "OH", "display_address": ["347 Euclid Ave", "Cleveland, OH 44114"]}, "phone": "+12166222626", "display_phone": "(216) 622-2626", "distance": 3309.071727847644}, {"id": "Tm2dKN_-DCdZfF2xMWrX7w", "alias": "siam-cafe-cleveland", "name": "Siam Cafe", "image_url": "https://s3-media3.fl.yelpcdn.com/bphoto/DGviOg8zuMbxglzk6I4HxQ/o.jpg", "is_closed": false, "url": "https://www.yelp.com/biz/siam-cafe-cleveland?adjust_creative=VZ7v1vIln-RpGHH5_leTWQ&utm_campaign=yelp_api_v3&utm_medium=api_v3_business_search&utm_source=VZ7v1vIln-RpGHH5_leTWQ", "review_count": 248, "categories": [{"alias": "asianfusion", "title": "Asian Fusion"}, {"alias": "thai", "title": "Thai"}, {"alias": "chinese", "title": "Chinese"}], "rating": 4.0, "coordinates": {"latitude": 41.516503, "longitude": -81.6649155}, "transactions": ["delivery"], "price": "$$", "location": {"address1": "3951 St Clair Ave NE", "address2": "", "address3": "", "city": "Cleveland", "zip_code": "44114", "country": "US", "state": "OH", "display_address": ["3951 St Clair Ave NE", "Cleveland, OH 44114"]}, "phone": "+12163612323", "display_phone": "(216) 361-2323", "distance": 4830.754617477875}, {"id": "OA5Li3ySzhrbG_WvD_QGYA", "alias": "barrio-cleveland", "name": "Barrio", "image_url": "https://s3-media2.fl.yelpcdn.com/bphoto/dqkhpuedV858NHoNsFNXvA/o.jpg", "is_closed": false, "url": "https://www.yelp.com/biz/barrio-cleveland?adjust_creative=VZ7v1vIln-RpGHH5_leTWQ&utm_campaign=yelp_api_v3&utm_medium=api_v3_business_search&utm_source=VZ7v1vIln-RpGHH5_leTWQ", "review_count": 576, "categories": [{"alias": "bars", "title": "Bars"}, {"alias": "breakfast_brunch", "title": "Breakfast & Brunch"}, {"alias": "tacos", "title": "Tacos"}], "rating": 4.0, "coordinates": {"latitude": 41.4820976257324, "longitude": -81.6864166259766}, "transactions": [], "price": "$$", "location": {"address1": "806 Literary Rd", "address2": "", "address3": "", "city": "Cleveland", "zip_code": "44113", "country": "US", "state": "OH", "display_address": ["806 Literary Rd", "Cleveland, OH 44113"]}, "phone": "+12169997714", "display_phone": "(216) 999-7714", "distance": 1515.4297831204988}, {"id": "Gh2kkOnzieYqe5cVLtl7MA", "alias": "tabletop-board-game-cafe-cleveland-2", "name": "Tabletop Board Game Cafe", "image_url": "https://s3-media3.fl.yelpcdn.com/bphoto/BsRfAcrz4nUh7f6QrrO9gA/o.jpg", "is_closed": false, "url": "https://www.yelp.com/biz/tabletop-board-game-cafe-cleveland-2?adjust_creative=VZ7v1vIln-RpGHH5_leTWQ&utm_campaign=yelp_api_v3&utm_medium=api_v3_business_search&utm_source=VZ7v1vIln-RpGHH5_leTWQ", "review_count": 113, "categories": [{"alias": "cafes", "title": "Cafes"}, {"alias": "bars", "title": "Bars"}, {"alias": "tabletopgames", "title": "Tabletop Games"}], "rating": 4.5, "coordinates": {"latitude": 41.4864311, "longitude": -81.7053909}, "transactions": ["delivery", "pickup"], "price": "$$", "location": {"address1": "1810 W 25th St", "address2": "", "address3": "", "city": "Cleveland", "zip_code": "44113", "country": "US", "state": "OH", "display_address": ["1810 W 25th St", "Cleveland, OH 44113"]}, "phone": "+12165123053", "display_phone": "(216) 512-3053", "distance": 3109.350962662312}, {"id": "iyeanZgAkpCSL4eHoqdhnw", "alias": "music-box-supper-club-cleveland", "name": "Music Box Supper Club", "image_url": "https://s3-media1.fl.yelpcdn.com/bphoto/p4qY_Fwo1sxdJvlxxsberA/o.jpg", "is_closed": false, "url": "https://www.yelp.com/biz/music-box-supper-club-cleveland?adjust_creative=VZ7v1vIln-RpGHH5_leTWQ&utm_campaign=yelp_api_v3&utm_medium=api_v3_business_search&utm_source=VZ7v1vIln-RpGHH5_leTWQ", "review_count": 197, "categories": [{"alias": "venues", "title": "Venues & Event Spaces"}, {"alias": "supperclubs", "title": "Supper Clubs"}], "rating": 3.5, "coordinates": {"latitude": 41.498306, "longitude": -81.70643}, "transactions": [], "price": "$$", "location": {"address1": "1148 Main Ave", "address2": null, "address3": "", "city": "Cleveland", "zip_code": "44113", "country": "US", "state": "OH", "display_address": ["1148 Main Ave", "Cleveland, OH 44113"]}, "phone": "+12162421250", "display_phone": "(216) 242-1250", "distance": 3963.678880641477}, {"id": "_6Brh4UGrsnakkBKT1H_Qw", "alias": "beerhead-bar-and-eatery-cleveland-3", "name": "Beerhead Bar & Eatery", "image_url": "https://s3-media4.fl.yelpcdn.com/bphoto/6ZSFSGGdBLrRFn3Sa_Kwow/o.jpg", "is_closed": false, "url": "https://www.yelp.com/biz/beerhead-bar-and-eatery-cleveland-3?adjust_creative=VZ7v1vIln-RpGHH5_leTWQ&utm_campaign=yelp_api_v3&utm_medium=api_v3_business_search&utm_source=VZ7v1vIln-RpGHH5_leTWQ", "review_count": 231, "categories": [{"alias": "tradamerican", "title": "American (Traditional)"}, {"alias": "beerbar", "title": "Beer Bar"}, {"alias": "sandwiches", "title": "Sandwiches"}], "rating": 3.5, "coordinates": {"latitude": 41.4995023016577, "longitude": -81.7053054662704}, "transactions": ["delivery", "pickup"], "price": "$$", "location": {"address1": "1156 W 11th St", "address2": "", "address3": "", "city": "Cleveland", "zip_code": "44113", "country": "US", "state": "OH", "display_address": ["1156 W 11th St", "Cleveland, OH 44113"]}, "phone": "+12166212000", "display_phone": "(216) 621-2000", "distance": 3992.705613125404}, {"id": "VH2BjFjc9usDquDgoHhptA", "alias": "barrio-cleveland-3", "name": "Barrio", "image_url": "https://s3-media2.fl.yelpcdn.com/bphoto/OWhGeQlC7ZthFTXIbmMLOg/o.jpg", "is_closed": false, "url": "https://www.yelp.com/biz/barrio-cleveland-3?adjust_creative=VZ7v1vIln-RpGHH5_leTWQ&utm_campaign=yelp_api_v3&utm_medium=api_v3_business_search&utm_source=VZ7v1vIln-RpGHH5_leTWQ", "review_count": 574, "categories": [{"alias": "breakfast_brunch", "title": "Breakfast & Brunch"}, {"alias": "bars", "title": "Bars"}, {"alias": "tacos", "title": "Tacos"}], "rating": 4.0, "coordinates": {"latitude": 41.4984058257344, "longitude": -81.6893222744518}, "transactions": [], "price": "$$", "location": {"address1": "527 Prospect Ave", "address2": "", "address3": null, "city": "Cleveland", "zip_code": "44115", "country": "US", "state": "OH", "display_address": ["527 Prospect Ave", "Cleveland, OH 44115"]}, "phone": "+12168624652", "display_phone": "(216) 862-4652", "distance": 3116.950715223465}, {"id": "qDqHD4iPXPecT1WnV0JRzA", "alias": "bin-216-cleveland", "name": "Bin 216", "image_url": "https://s3-media3.fl.yelpcdn.com/bphoto/B8ZZDlXS1kiGtXQbwJtbjw/o.jpg", "is_closed": false, "url": "https://www.yelp.com/biz/bin-216-cleveland?adjust_creative=VZ7v1vIln-RpGHH5_leTWQ&utm_campaign=yelp_api_v3&utm_medium=api_v3_business_search&utm_source=VZ7v1vIln-RpGHH5_leTWQ", "review_count": 96, "categories": [{"alias": "tapasmallplates", "title": "Tapas/Small Plates"}, {"alias": "wine_bars", "title": "Wine Bars"}], "rating": 4.0, "coordinates": {"latitude": 41.5010234713554, "longitude": -81.6811421513557}, "transactions": ["delivery"], "price": "$$", "location": {"address1": "1515 Euclid Ave", "address2": "", "address3": "", "city": "Cleveland", "zip_code": "44115", "country": "US", "state": "OH", "display_address": ["1515 Euclid Ave", "Cleveland, OH 44115"]}, "phone": "+12168600530", "display_phone": "(216) 860-0530", "distance": 3175.7391076752624}, {"id": "wzj2cMpiDJW0HB3iCvCOYA", "alias": "the-jolly-scholar-cleveland", "name": "The Jolly Scholar", "image_url": "https://s3-media4.fl.yelpcdn.com/bphoto/kCZlquPTABY9FYOl-JTaYQ/o.jpg", "is_closed": false, "url": "https://www.yelp.com/biz/the-jolly-scholar-cleveland?adjust_creative=VZ7v1vIln-RpGHH5_leTWQ&utm_campaign=yelp_api_v3&utm_medium=api_v3_business_search&utm_source=VZ7v1vIln-RpGHH5_leTWQ", "review_count": 165, "categories": [{"alias": "newamerican", "title": "American (New)"}, {"alias": "bars", "title": "Bars"}], "rating": 4.0, "coordinates": {"latitude": 41.507514111555, "longitude": -81.608215654207}, "transactions": ["delivery"], "price": "$$", "location": {"address1": "Thwing Ctr", "address2": "11111 Euclid Ave", "address3": "", "city": "Cleveland", "zip_code": "44106", "country": "US", "state": "OH", "display_address": ["Thwing Ctr", "11111 Euclid Ave", "Cleveland, OH 44106"]}, "phone": "+12163680090", "display_phone": "(216) 368-0090", "distance": 6551.426559929892}, {"id": "1zKjojtmAHuVOHhtGVxC2Q", "alias": "jukebox-cleveland", "name": "Jukebox", "image_url": "https://s3-media3.fl.yelpcdn.com/bphoto/acDuesFPnl_ersLgIfJJgw/o.jpg", "is_closed": false, "url": "https://www.yelp.com/biz/jukebox-cleveland?adjust_creative=VZ7v1vIln-RpGHH5_leTWQ&utm_campaign=yelp_api_v3&utm_medium=api_v3_business_search&utm_source=VZ7v1vIln-RpGHH5_leTWQ", "review_count": 94, "categories": [{"alias": "bars", "title": "Bars"}, {"alias": "vegan", "title": "Vegan"}, {"alias": "gluten_free", "title": "Gluten-Free"}], "rating": 4.5, "coordinates": {"latitude": 41.4895582, "longitude": -81.7108939}, "transactions": ["delivery"], "price": "$", "location": {"address1": "1404 W 29th St", "address2": "", "address3": "", "city": "Cleveland", "zip_code": "44113", "country": "US", "state": "OH", "display_address": ["1404 W 29th St", "Cleveland, OH 44113"]}, "phone": "+12162067699", "display_phone": "(216) 206-7699", "distance": 3677.3920048390014}, {"id": "0rJT6k0wcQ1tq4i7orR7Og", "alias": "murano-modern-italian-cuisine-cleveland", "name": "Murano Modern Italian Cuisine", "image_url": "https://s3-media2.fl.yelpcdn.com/bphoto/KBzuyUCh9SuzSsT6DD-ZZg/o.jpg", "is_closed": false, "url": "https://www.yelp.com/biz/murano-modern-italian-cuisine-cleveland?adjust_creative=VZ7v1vIln-RpGHH5_leTWQ&utm_campaign=yelp_api_v3&utm_medium=api_v3_business_search&utm_source=VZ7v1vIln-RpGHH5_leTWQ", "review_count": 31, "categories": [{"alias": "italian", "title": "Italian"}], "rating": 4.0, "coordinates": {"latitude": 41.50089, "longitude": -81.69011}, "transactions": ["delivery", "pickup"], "price": "$$", "location": {"address1": "1852 E 6th St", "address2": "", "address3": null, "city": "Cleveland", "zip_code": "44114", "country": "US", "state": "OH", "display_address": ["1852 E 6th St", "Cleveland, OH 44114"]}, "phone": "+12167168900", "display_phone": "(216) 716-8900", "distance": 3386.7754547571126}, {"id": "8B6HoeMy-xCeOarkMANdZA", "alias": "quisqueya-lat\u00edn-cuisine-cleveland", "name": "Quisqueya Lat\u00edn Cuisine", "image_url": "https://s3-media3.fl.yelpcdn.com/bphoto/lTYBh0w3yRKIINu0kl36UQ/o.jpg", "is_closed": false, "url": "https://www.yelp.com/biz/quisqueya-lat%C3%ADn-cuisine-cleveland?adjust_creative=VZ7v1vIln-RpGHH5_leTWQ&utm_campaign=yelp_api_v3&utm_medium=api_v3_business_search&utm_source=VZ7v1vIln-RpGHH5_leTWQ", "review_count": 27, "categories": [{"alias": "latin", "title": "Latin American"}, {"alias": "dominican", "title": "Dominican"}], "rating": 4.5, "coordinates": {"latitude": 41.450506, "longitude": -81.699764}, "transactions": ["delivery", "pickup"], "price": "$$", "location": {"address1": "2317 Denison Ave", "address2": "", "address3": "", "city": "Cleveland", "zip_code": "44109", "country": "US", "state": "OH", "display_address": ["2317 Denison Ave", "Cleveland, OH 44109"]}, "phone": "+12166513410", "display_phone": "(216) 651-3410", "distance": 3422.3518590370104}, {"id": "TW6A7M0j0R9hp1zYpxz2FQ", "alias": "district-cleveland", "name": "District", "image_url": "https://s3-media3.fl.yelpcdn.com/bphoto/zaHa3ZDUHfZp0edm8bQXnQ/o.jpg", "is_closed": false, "url": "https://www.yelp.com/biz/district-cleveland?adjust_creative=VZ7v1vIln-RpGHH5_leTWQ&utm_campaign=yelp_api_v3&utm_medium=api_v3_business_search&utm_source=VZ7v1vIln-RpGHH5_leTWQ", "review_count": 136, "categories": [{"alias": "newamerican", "title": "American (New)"}, {"alias": "brasseries", "title": "Brasseries"}], "rating": 3.5, "coordinates": {"latitude": 41.5002333552481, "longitude": -81.681493829361}, "transactions": ["delivery"], "price": "$$", "location": {"address1": "1350 Euclid Ave", "address2": "", "address3": "", "city": "Cleveland", "zip_code": "44115", "country": "US", "state": "OH", "display_address": ["1350 Euclid Ave", "Cleveland, OH 44115"]}, "phone": "+12168581000", "display_phone": "(216) 858-1000", "distance": 3077.1335814646823}, {"id": "ms4nFq8B56RHkFViRaAiWQ", "alias": "das-schnitzel-haus-parma-2", "name": "Das Schnitzel Haus", "image_url": "https://s3-media3.fl.yelpcdn.com/bphoto/fKmbXBpfVNsnvPezeUnaTA/o.jpg", "is_closed": false, "url": "https://www.yelp.com/biz/das-schnitzel-haus-parma-2?adjust_creative=VZ7v1vIln-RpGHH5_leTWQ&utm_campaign=yelp_api_v3&utm_medium=api_v3_business_search&utm_source=VZ7v1vIln-RpGHH5_leTWQ", "review_count": 259, "categories": [{"alias": "german", "title": "German"}, {"alias": "newamerican", "title": "American (New)"}, {"alias": "beergardens", "title": "Beer Gardens"}], "rating": 4.0, "coordinates": {"latitude": 41.4067701029359, "longitude": -81.7424299567938}, "transactions": ["delivery"], "price": "$$", "location": {"address1": "5728 Pearl Rd", "address2": "", "address3": "", "city": "Parma", "zip_code": "44129", "country": "US", "state": "OH", "display_address": ["5728 Pearl Rd", "Parma, OH 44129"]}, "phone": "+14408865050", "display_phone": "(440) 886-5050", "distance": 9435.801567005892}, {"id": "Md6NWl54ny8hA-NVaYZuew", "alias": "nighttown-cleveland", "name": "Nighttown", "image_url": "https://s3-media3.fl.yelpcdn.com/bphoto/yDMKjGeNl7Pkd_ss3BSH6g/o.jpg", "is_closed": false, "url": "https://www.yelp.com/biz/nighttown-cleveland?adjust_creative=VZ7v1vIln-RpGHH5_leTWQ&utm_campaign=yelp_api_v3&utm_medium=api_v3_business_search&utm_source=VZ7v1vIln-RpGHH5_leTWQ", "review_count": 199, "categories": [{"alias": "newamerican", "title": "American (New)"}, {"alias": "jazzandblues", "title": "Jazz & Blues"}, {"alias": "bars", "title": "Bars"}], "rating": 3.5, "coordinates": {"latitude": 41.5011949, "longitude": -81.5950999}, "transactions": ["delivery", "pickup"], "price": "$$", "location": {"address1": "12387 Cedar Rd", "address2": "", "address3": "", "city": "Cleveland", "zip_code": "44106", "country": "US", "state": "OH", "display_address": ["12387 Cedar Rd", "Cleveland, OH 44106"]}, "phone": "+12167950550", "display_phone": "(216) 795-0550", "distance": 7136.067881606352}, {"id": "OMskTANen2g5AlwN4EyxMg", "alias": "seoul-garden-parma", "name": "Seoul Garden", "image_url": "https://s3-media4.fl.yelpcdn.com/bphoto/wGO7CFAu5PUUejPcsTo9lw/o.jpg", "is_closed": false, "url": "https://www.yelp.com/biz/seoul-garden-parma?adjust_creative=VZ7v1vIln-RpGHH5_leTWQ&utm_campaign=yelp_api_v3&utm_medium=api_v3_business_search&utm_source=VZ7v1vIln-RpGHH5_leTWQ", "review_count": 314, "categories": [{"alias": "korean", "title": "Korean"}, {"alias": "bbq", "title": "Barbeque"}], "rating": 4.5, "coordinates": {"latitude": 41.41722, "longitude": -81.73016}, "transactions": ["delivery"], "price": "$$", "location": {"address1": "5270 Pearl Rd", "address2": "", "address3": "", "city": "Parma", "zip_code": "44129", "country": "US", "state": "OH", "display_address": ["5270 Pearl Rd", "Parma, OH 44129"]}, "phone": "", "display_phone": "", "distance": 7890.702269917252}, {"id": "cuI4nkcx6d1bdG--ZM4oww", "alias": "anatolia-cafe-cleveland-heights-2", "name": "Anatolia Cafe", "image_url": "https://s3-media2.fl.yelpcdn.com/bphoto/BadEQnxPiTGw1gIXwX0y1w/o.jpg", "is_closed": false, "url": "https://www.yelp.com/biz/anatolia-cafe-cleveland-heights-2?adjust_creative=VZ7v1vIln-RpGHH5_leTWQ&utm_campaign=yelp_api_v3&utm_medium=api_v3_business_search&utm_source=VZ7v1vIln-RpGHH5_leTWQ", "review_count": 269, "categories": [{"alias": "turkish", "title": "Turkish"}, {"alias": "mediterranean", "title": "Mediterranean"}, {"alias": "mideastern", "title": "Middle Eastern"}], "rating": 4.0, "coordinates": {"latitude": 41.49776, "longitude": -81.56543}, "transactions": ["delivery"], "price": "$$", "location": {"address1": "2270 Lee Rd", "address2": "", "address3": "", "city": "Cleveland Heights", "zip_code": "44118", "country": "US", "state": "OH", "display_address": ["2270 Lee Rd", "Cleveland Heights, OH 44118"]}, "phone": "+12163214400", "display_phone": "(216) 321-4400", "distance": 9303.248640179394}], "total": 1500, "region": {"center": {"longitude": -81.67236328125, "latitude": 41.47341857719741}}}